{
  "type": "FeatureCollection",
  "name": "healthfacilities_balochistan",
    "features": [
    { "type": "Feature", "properties": { "OBJECTID": 442, "HF_Name": "KACHAO", "HF_Type": "DISPENSARY", "Category": "Other", "Latitude": 29.5, "Longitude": 61.240001678500001, "Functional": "Functional", "Population": 0, "UC_NAME": "Taftan", "Tehsil": "Taftan", "Province": "Balochistan", "District": "Chagai", "Shape_Leng": 4.7668700669600002 }, "geometry": { "type": "Point", "coordinates": [ 61.235840660000065, 29.497242290000031 ] } },
    { "type": "Feature", "properties": { "OBJECTID": 443, "HF_Name": "KIRTAKA", "HF_Type": "BASIC HEALTH UNIT", "Category": "Other", "Latitude": 29.4500007629, "Longitude": 61.3600006104, "Functional": "Functional", "Population": 0, "UC_NAME": "Taftan", "Tehsil": "Taftan", "Province": "Balochistan", "District": "Chagai", "Shape_Leng": 4.7668700669600002 }, "geometry": { "type": "Point", "coordinates": [ 61.359387924000032, 29.447472029000039 ] } },
    { "type": "Feature", "properties": { "OBJECTID": 444, "HF_Name": "RDC CAMP SANDAK", "HF_Type": "DISPENSARY", "Category": "Other", "Latitude": 29.280000686600001, "Longitude": 61.560001373299997, "Functional": "Functional", "Population": 0, "UC_NAME": "Taftan", "Tehsil": "Taftan", "Province": "Balochistan", "District": "Chagai", "Shape_Leng": 4.7668700669600002 }, "geometry": { "type": "Point", "coordinates": [ 61.614190294000082, 29.238978727000074 ] } },
    { "type": "Feature", "properties": { "OBJECTID": 445, "HF_Name": "TAFTAN", "HF_Type": "BASIC HEALTH UNIT", "Category": "Other", "Latitude": 28.969999313399999, "Longitude": 61.569999694800003, "Functional": "Functional", "Population": 0, "UC_NAME": "Taftan", "Tehsil": "Taftan", "Province": "Balochistan", "District": "Chagai", "Shape_Leng": 4.7668700669600002 }, "geometry": { "type": "Point", "coordinates": [ 61.567001130000051, 28.96532650000006 ] } },
    { "type": "Feature", "properties": { "OBJECTID": 446, "HF_Name": "MOJO", "HF_Type": "BASIC HEALTH UNIT", "Category": "Other", "Latitude": 25.370000839199999, "Longitude": 61.680000305199997, "Functional": "Functional", "Population": 0, "UC_NAME": "Suntser", "Tehsil": "Sunster", "Province": "Balochistan", "District": "Gwadar", "Shape_Leng": 2.2259635218899998 }, "geometry": { "type": "Point", "coordinates": [ 61.68334512000007, 25.369904570000074 ] } },
    { "type": "Feature", "properties": { "OBJECTID": 447, "HF_Name": "JIWANI", "HF_Type": "RURAL HEALTH CENTRE", "Category": "Other", "Latitude": 25.079999923700001, "Longitude": 61.779998779300001, "Functional": "Functional", "Population": 0, "UC_NAME": "Jiwani", "Tehsil": "Jiwani", "Province": "Balochistan", "District": "Gwadar", "Shape_Leng": 1.1909744387400001 }, "geometry": { "type": "Point", "coordinates": [ 61.748641745000043, 25.050253175000023 ] } },
    { "type": "Feature", "properties": { "OBJECTID": 448, "HF_Name": "GABD", "HF_Type": "BASIC HEALTH UNIT", "Category": "Other", "Latitude": 25.3899993896, "Longitude": 61.779998779300001, "Functional": "Functional", "Population": 0, "UC_NAME": "Suntser", "Tehsil": "Sunster", "Province": "Balochistan", "District": "Gwadar", "Shape_Leng": 2.2259635218899998 }, "geometry": { "type": "Point", "coordinates": [ 61.801800675000038, 25.380446582000047 ] } },
    { "type": "Feature", "properties": { "OBJECTID": 449, "HF_Name": "ZAHRAN", "HF_Type": "BASIC HEALTH UNIT", "Category": "Other", "Latitude": 25.6399993896, "Longitude": 61.810001373299997, "Functional": "Functional", "Population": 0, "UC_NAME": "Suntser", "Tehsil": "Sunster", "Province": "Balochistan", "District": "Gwadar", "Shape_Leng": 2.2259635218899998 }, "geometry": { "type": "Point", "coordinates": [ 61.811338500000033, 25.641398210000034 ] } },
    { "type": "Feature", "properties": { "OBJECTID": 450, "HF_Name": "KALATOO", "HF_Type": "BASIC HEALTH UNIT", "Category": "Other", "Latitude": 25.409999847400002, "Longitude": 61.8600006104, "Functional": "Functional", "Population": 0, "UC_NAME": "Suntser", "Tehsil": "Sunster", "Province": "Balochistan", "District": "Gwadar", "Shape_Leng": 2.2259635218899998 }, "geometry": { "type": "Point", "coordinates": [ 61.860991580000075, 25.411703730000056 ] } },
    { "type": "Feature", "properties": { "OBJECTID": 451, "HF_Name": "GOWER KOOP", "HF_Type": "BASIC HEALTH UNIT", "Category": "Other", "Latitude": 25.75, "Longitude": 61.8699989319, "Functional": "Functional", "Population": 0, "UC_NAME": "Soro", "Tehsil": "Mand", "Province": "Balochistan", "District": "Kech", "Shape_Leng": 2.070878623 }, "geometry": { "type": "Point", "coordinates": [ 61.873229288000061, 25.747992183000065 ] } },
    { "type": "Feature", "properties": { "OBJECTID": 452, "HF_Name": "PANWAN", "HF_Type": "DISPENSARY", "Category": "Other", "Latitude": 25.159999847400002, "Longitude": 61.8800010681, "Functional": "Functional", "Population": 0, "UC_NAME": "Jiwani", "Tehsil": "Jiwani", "Province": "Balochistan", "District": "Gwadar", "Shape_Leng": 1.1909744387400001 }, "geometry": { "type": "Point", "coordinates": [ 61.875350610000055, 25.162188960000037 ] } },
    { "type": "Feature", "properties": { "OBJECTID": 453, "HF_Name": "KALATOO (DOOMB)", "HF_Type": "DISPENSARY", "Category": "Other", "Latitude": 25.399999618500001, "Longitude": 61.900001525900002, "Functional": "Functional", "Population": 0, "UC_NAME": "Suntser", "Tehsil": "Sunster", "Province": "Balochistan", "District": "Gwadar", "Shape_Leng": 2.2259635218899998 }, "geometry": { "type": "Point", "coordinates": [ 61.899241699000072, 25.401049479000051 ] } },
    { "type": "Feature", "properties": { "OBJECTID": 454, "HF_Name": "SASADI", "HF_Type": "DISPENSARY", "Category": "Other", "Latitude": 25.649999618500001, "Longitude": 61.900001525900002, "Functional": "Functional", "Population": 0, "UC_NAME": "Suntser", "Tehsil": "Sunster", "Province": "Balochistan", "District": "Gwadar", "Shape_Leng": 2.2259635218899998 }, "geometry": { "type": "Point", "coordinates": [ 61.902039413000068, 25.65507903200006 ] } },
    { "type": "Feature", "properties": { "OBJECTID": 455, "HF_Name": "MARANI BAZAR", "HF_Type": "DISPENSARY", "Category": "Other", "Latitude": 25.520000457799998, "Longitude": 61.919998168900001, "Functional": "Functional", "Population": 0, "UC_NAME": "Suntser", "Tehsil": "Sunster", "Province": "Balochistan", "District": "Gwadar", "Shape_Leng": 2.2259635218899998 }, "geometry": { "type": "Point", "coordinates": [ 61.916226425000048, 25.514172549000023 ] } },
    { "type": "Feature", "properties": { "OBJECTID": 456, "HF_Name": "REEDAG", "HF_Type": "DISPENSARY", "Category": "Other", "Latitude": 26.090000152599998, "Longitude": 61.919998168900001, "Functional": "Functional", "Population": 0, "UC_NAME": "Bullo", "Tehsil": "Mand", "Province": "Balochistan", "District": "Kech", "Shape_Leng": 2.070878623 }, "geometry": { "type": "Point", "coordinates": [ 61.918120221000038, 26.088867423000067 ] } },
    { "type": "Feature", "properties": { "OBJECTID": 457, "HF_Name": "GANZ", "HF_Type": "BASIC HEALTH UNIT", "Category": "Other", "Latitude": 25.1399993896, "Longitude": 61.930000305199997, "Functional": "Functional", "Population": 0, "UC_NAME": "Jiwani", "Tehsil": "Gwadar", "Province": "Balochistan", "District": "Gwadar", "Shape_Leng": 2.7269417259300002 }, "geometry": { "type": "Point", "coordinates": [ 61.926489622000076, 25.144386475000033 ] } },
    { "type": "Feature", "properties": { "OBJECTID": 458, "HF_Name": "SUNT SAR", "HF_Type": "BASIC HEALTH UNIT", "Category": "Other", "Latitude": 25.510000228900001, "Longitude": 61.959999084499998, "Functional": "Functional", "Population": 0, "UC_NAME": "Suntser", "Tehsil": "Sunster", "Province": "Balochistan", "District": "Gwadar", "Shape_Leng": 2.2259635218899998 }, "geometry": { "type": "Point", "coordinates": [ 62.002013432000069, 25.515821967000079 ] } },
    { "type": "Feature", "properties": { "OBJECTID": 459, "HF_Name": "PALLARY", "HF_Type": "BASIC HEALTH UNIT", "Category": "Other", "Latitude": 25.270000457799998, "Longitude": 61.990001678500001, "Functional": "Functional", "Population": 0, "UC_NAME": "Peshukan", "Tehsil": "Gwadar", "Province": "Balochistan", "District": "Gwadar", "Shape_Leng": 2.7269417259300002 }, "geometry": { "type": "Point", "coordinates": [ 61.986281025000039, 25.273133159000054 ] } },
    { "type": "Feature", "properties": { "OBJECTID": 460, "HF_Name": "BULLO (MAND)", "HF_Type": "BASIC HEALTH UNIT", "Category": "Other", "Latitude": 26.159999847400002, "Longitude": 62.040000915500002, "Functional": "Functional", "Population": 0, "UC_NAME": "Bullo", "Tehsil": "Mand", "Province": "Balochistan", "District": "Kech", "Shape_Leng": 2.070878623 }, "geometry": { "type": "Point", "coordinates": [ 62.036505574000046, 26.158846047000054 ] } },
    { "type": "Feature", "properties": { "OBJECTID": 461, "HF_Name": "MAND", "HF_Type": "RURAL HEALTH CENTRE", "Category": "Other", "Latitude": 26.120000839199999, "Longitude": 62.040000915500002, "Functional": "Functional", "Population": 0, "UC_NAME": "Gayab", "Tehsil": "Mand", "Province": "Balochistan", "District": "Kech", "Shape_Leng": 2.070878623 }, "geometry": { "type": "Point", "coordinates": [ 62.037254860000075, 26.123843180000051 ] } },
    { "type": "Feature", "properties": { "OBJECTID": 462, "HF_Name": "PUTHAN, DASHT SUNTS*", "HF_Type": "DISPENSARY", "Category": "Other", "Latitude": 25.600000381499999, "Longitude": 62.049999237100003, "Functional": "Functional", "Population": 0, "UC_NAME": "Suntser", "Tehsil": "Sunster", "Province": "Balochistan", "District": "Gwadar", "Shape_Leng": 2.2259635218899998 }, "geometry": { "type": "Point", "coordinates": [ 62.047025760000054, 25.59958738000006 ] } },
    { "type": "Feature", "properties": { "OBJECTID": 463, "HF_Name": "MAND", "HF_Type": "MATERNAL & CHILD HEALTH CENTRE", "Category": "Other", "Latitude": 26.1100006104, "Longitude": 62.049999237100003, "Functional": "Functional", "Population": 0, "UC_NAME": "Gayab", "Tehsil": "Mand", "Province": "Balochistan", "District": "Kech", "Shape_Leng": 2.070878623 }, "geometry": { "type": "Point", "coordinates": [ 62.04899036900008, 26.111591575000034 ] } },
    { "type": "Feature", "properties": { "OBJECTID": 464, "HF_Name": "SUI (DASHT)", "HF_Type": "DISPENSARY", "Category": "Other", "Latitude": 25.629999160800001, "Longitude": 62.049999237100003, "Functional": "Functional", "Population": 0, "UC_NAME": "Suntser", "Tehsil": "Sunster", "Province": "Balochistan", "District": "Gwadar", "Shape_Leng": 2.2259635218899998 }, "geometry": { "type": "Point", "coordinates": [ 62.053710350000074, 25.634987730000034 ] } },
    { "type": "Feature", "properties": { "OBJECTID": 465, "HF_Name": "PISHKAN", "HF_Type": "DISPENSARY", "Category": "Other", "Latitude": 25.1399993896, "Longitude": 62.060001373299997, "Functional": "Functional", "Population": 0, "UC_NAME": "Peshukan", "Tehsil": "Gwadar", "Province": "Balochistan", "District": "Gwadar", "Shape_Leng": 2.7269417259300002 }, "geometry": { "type": "Point", "coordinates": [ 62.063694961000067, 25.134527067000079 ] } },
    { "type": "Feature", "properties": { "OBJECTID": 466, "HF_Name": "MAND", "HF_Type": "BASIC HEALTH UNIT", "Category": "Other", "Latitude": 26.100000381499999, "Longitude": 62.069999694800003, "Functional": "Functional", "Population": 0, "UC_NAME": "Gayab", "Tehsil": "Mand", "Province": "Balochistan", "District": "Kech", "Shape_Leng": 2.070878623 }, "geometry": { "type": "Point", "coordinates": [ 62.070914583000047, 26.101535240000032 ] } },
    { "type": "Feature", "properties": { "OBJECTID": 467, "HF_Name": "MULLA-E-CHAT", "HF_Type": "DISPENSARY", "Category": "Other", "Latitude": 26.170000076299999, "Longitude": 62.099998474099998, "Functional": "Functional", "Population": 0, "UC_NAME": "Gayab", "Tehsil": "Mand", "Province": "Balochistan", "District": "Kech", "Shape_Leng": 2.070878623 }, "geometry": { "type": "Point", "coordinates": [ 62.104306878000045, 26.130495132000078 ] } },
    { "type": "Feature", "properties": { "OBJECTID": 468, "HF_Name": "SAIJI", "HF_Type": "DISPENSARY", "Category": "Other", "Latitude": 25.4500007629, "Longitude": 62.1300010681, "Functional": "Functional", "Population": 0, "UC_NAME": "Peshukan", "Tehsil": "Gwadar", "Province": "Balochistan", "District": "Gwadar", "Shape_Leng": 2.7269417259300002 }, "geometry": { "type": "Point", "coordinates": [ 62.133609740000054, 25.445826160000024 ] } },
    { "type": "Feature", "properties": { "OBJECTID": 469, "HF_Name": "PATHAN KAHOOR", "HF_Type": "DISPENSARY", "Category": "Other", "Latitude": 25.579999923700001, "Longitude": 62.1399993896, "Functional": "Functional", "Population": 0, "UC_NAME": "Zarain Bug", "Tehsil": "Dasht", "Province": "Balochistan", "District": "Kech", "Shape_Leng": 2.4203257137600001 }, "geometry": { "type": "Point", "coordinates": [ 62.140979920000063, 25.576081630000033 ] } },
    { "type": "Feature", "properties": { "OBJECTID": 470, "HF_Name": "JAN MOHD BAZZAR", "HF_Type": "DISPENSARY", "Category": "Other", "Latitude": 25.6800003052, "Longitude": 62.150001525900002, "Functional": "Functional", "Population": 0, "UC_NAME": "Darachko", "Tehsil": "Kech_(Turbat)", "Province": "Balochistan", "District": "Kech", "Shape_Leng": 6.8566438985299998 }, "geometry": { "type": "Point", "coordinates": [ 62.147972620000075, 25.683885770000074 ] } },
    { "type": "Feature", "properties": { "OBJECTID": 471, "HF_Name": "GOUBURD", "HF_Type": "BASIC HEALTH UNIT", "Category": "Other", "Latitude": 26.129999160800001, "Longitude": 62.169998168900001, "Functional": "Functional", "Population": 0, "UC_NAME": "Gomazi", "Tehsil": "Tump", "Province": "Balochistan", "District": "Kech", "Shape_Leng": 2.2502772199300001 }, "geometry": { "type": "Point", "coordinates": [ 62.165454370000077, 26.13374951000003 ] } },
    { "type": "Feature", "properties": { "OBJECTID": 472, "HF_Name": "ZARING BAG", "HF_Type": "RURAL HEALTH CENTRE", "Category": "Other", "Latitude": 25.6399993896, "Longitude": 62.169998168900001, "Functional": "Functional", "Population": 0, "UC_NAME": "Zarain Bug", "Tehsil": "Dasht", "Province": "Balochistan", "District": "Kech", "Shape_Leng": 2.4203257137600001 }, "geometry": { "type": "Point", "coordinates": [ 62.183973531000049, 25.637559865000071 ] } },
    { "type": "Feature", "properties": { "OBJECTID": 473, "HF_Name": "ZARINBUG", "HF_Type": "BASIC HEALTH UNIT", "Category": "Other", "Latitude": 25.620000839199999, "Longitude": 62.180000305199997, "Functional": "Functional", "Population": 0, "UC_NAME": "Zarain Bug", "Tehsil": "Dasht", "Province": "Balochistan", "District": "Kech", "Shape_Leng": 2.4203257137600001 }, "geometry": { "type": "Point", "coordinates": [ 62.18188479500003, 25.621234110000046 ] } },
    { "type": "Feature", "properties": { "OBJECTID": 474, "HF_Name": "KASHAP", "HF_Type": "BASIC HEALTH UNIT", "Category": "Other", "Latitude": 25.909999847400002, "Longitude": 62.200000762899997, "Functional": "Functional", "Population": 0, "UC_NAME": "Darachko", "Tehsil": "Kech_(Turbat)", "Province": "Balochistan", "District": "Kech", "Shape_Leng": 6.8566438985299998 }, "geometry": { "type": "Point", "coordinates": [ 62.201000600000043, 25.905904010000029 ] } },
    { "type": "Feature", "properties": { "OBJECTID": 475, "HF_Name": "PAK RAILWAY NUSHKI", "HF_Type": "DISPENSARY", "Category": "Other", "Latitude": 28.809999465899999, "Longitude": 62.229999542199998, "Functional": "Functional", "Population": 0, "UC_NAME": "Nok Kundi", "Tehsil": "Taftan", "Province": "Balochistan", "District": "Chagai", "Shape_Leng": 4.7668700669600002 }, "geometry": { "type": "Point", "coordinates": [ 62.229319841000063, 28.80918046000005 ] } },
    { "type": "Feature", "properties": { "OBJECTID": 476, "HF_Name": "BAL NIGORE", "HF_Type": "BASIC HEALTH UNIT", "Category": "Other", "Latitude": 25.6800003052, "Longitude": 62.259998321499999, "Functional": "Functional", "Population": 0, "UC_NAME": "Zarain Bug", "Tehsil": "Dasht", "Province": "Balochistan", "District": "Kech", "Shape_Leng": 2.4203257137600001 }, "geometry": { "type": "Point", "coordinates": [ 62.256942200000083, 25.68038942000004 ] } },
    { "type": "Feature", "properties": { "OBJECTID": 477, "HF_Name": "LANGASI", "HF_Type": "DISPENSARY", "Category": "Other", "Latitude": 25.670000076299999, "Longitude": 62.279998779300001, "Functional": "Functional", "Population": 0, "UC_NAME": "Zarain Bug", "Tehsil": "Dasht", "Province": "Balochistan", "District": "Kech", "Shape_Leng": 2.4203257137600001 }, "geometry": { "type": "Point", "coordinates": [ 62.279647657000055, 25.673038529000053 ] } },
    { "type": "Feature", "properties": { "OBJECTID": 478, "HF_Name": "GOMAZAI", "HF_Type": "DISPENSARY", "Category": "Other", "Latitude": 26.129999160800001, "Longitude": 62.299999237100003, "Functional": "Functional", "Population": 0, "UC_NAME": "Gomazi", "Tehsil": "Tump", "Province": "Balochistan", "District": "Kech", "Shape_Leng": 2.2502772199300001 }, "geometry": { "type": "Point", "coordinates": [ 62.297150230000057, 26.131418610000026 ] } },
    { "type": "Feature", "properties": { "OBJECTID": 479, "HF_Name": "CHIB KALMATI", "HF_Type": "BASIC HEALTH UNIT", "Category": "Other", "Latitude": 25.270000457799998, "Longitude": 62.330001831099999, "Functional": "Functional", "Population": 0, "UC_NAME": "Surbandar", "Tehsil": "Gwadar", "Province": "Balochistan", "District": "Gwadar", "Shape_Leng": 2.7269417259300002 }, "geometry": { "type": "Point", "coordinates": [ 62.327391530000057, 25.267681330000073 ] } },
    { "type": "Feature", "properties": { "OBJECTID": 480, "HF_Name": "KALACHOO", "HF_Type": "BASIC HEALTH UNIT", "Category": "Other", "Latitude": 26.090000152599998, "Longitude": 62.349998474099998, "Functional": "Functional", "Population": 0, "UC_NAME": "Gomazi", "Tehsil": "Tump", "Province": "Balochistan", "District": "Kech", "Shape_Leng": 2.2502772199300001 }, "geometry": { "type": "Point", "coordinates": [ 62.349472104000029, 26.089728840000078 ] } },
    { "type": "Feature", "properties": { "OBJECTID": 481, "HF_Name": "TUMP", "HF_Type": "LEPROSY CENTRE", "Category": "Other", "Latitude": 26.1100006104, "Longitude": 62.349998474099998, "Functional": "Functional", "Population": 0, "UC_NAME": "Gomazi", "Tehsil": "Tump", "Province": "Balochistan", "District": "Kech", "Shape_Leng": 2.2502772199300001 }, "geometry": { "type": "Point", "coordinates": [ 62.349090225000054, 26.106803594000041 ] } },
    { "type": "Feature", "properties": { "OBJECTID": 482, "HF_Name": "GHATTI DOOR", "HF_Type": "BASIC HEALTH UNIT", "Category": "Other", "Latitude": 25.229999542200002, "Longitude": 62.3600006104, "Functional": "Functional", "Population": 0, "UC_NAME": "Surbandar", "Tehsil": "Gwadar", "Province": "Balochistan", "District": "Gwadar", "Shape_Leng": 2.7269417259300002 }, "geometry": { "type": "Point", "coordinates": [ 62.364442758000052, 25.227857492000055 ] } },
    { "type": "Feature", "properties": { "OBJECTID": 483, "HF_Name": "TUMP", "HF_Type": "RURAL HEALTH CENTRE", "Category": "Other", "Latitude": 26.1100006104, "Longitude": 62.3699989319, "Functional": "Functional", "Population": 0, "UC_NAME": "Koshkalat", "Tehsil": "Tump", "Province": "Balochistan", "District": "Kech", "Shape_Leng": 2.2502772199300001 }, "geometry": { "type": "Point", "coordinates": [ 62.366494510000052, 26.109275060000073 ] } },
    { "type": "Feature", "properties": { "OBJECTID": 484, "HF_Name": "TUMP", "HF_Type": "DISPENSARY", "Category": "Other", "Latitude": 26.090000152599998, "Longitude": 62.3699989319, "Functional": "Functional", "Population": 0, "UC_NAME": "Koshkalat", "Tehsil": "Tump", "Province": "Balochistan", "District": "Kech", "Shape_Leng": 2.2502772199300001 }, "geometry": { "type": "Point", "coordinates": [ 62.370180098000048, 26.092529325000044 ] } },
    { "type": "Feature", "properties": { "OBJECTID": 485, "HF_Name": "TUMP", "HF_Type": "MATERNAL & CHILD HEALTH CENTRE", "Category": "Other", "Latitude": 26.100000381499999, "Longitude": 62.3800010681, "Functional": "Functional", "Population": 0, "UC_NAME": "Koshkalat", "Tehsil": "Tump", "Province": "Balochistan", "District": "Kech", "Shape_Leng": 2.2502772199300001 }, "geometry": { "type": "Point", "coordinates": [ 62.383521715000029, 26.099989406000077 ] } },
    { "type": "Feature", "properties": { "OBJECTID": 486, "HF_Name": "PUL ABAD", "HF_Type": "BASIC HEALTH UNIT", "Category": "Other", "Latitude": 26.120000839199999, "Longitude": 62.400001525900002, "Functional": "Functional", "Population": 0, "UC_NAME": "Koshkalat", "Tehsil": "Tump", "Province": "Balochistan", "District": "Kech", "Shape_Leng": 2.2502772199300001 }, "geometry": { "type": "Point", "coordinates": [ 62.395630760000074, 26.123843180000051 ] } },
    { "type": "Feature", "properties": { "OBJECTID": 487, "HF_Name": "BISHOLI", "HF_Type": "BASIC HEALTH UNIT", "Category": "Other", "Latitude": 25.7000007629, "Longitude": 62.400001525900002, "Functional": "Functional", "Population": 0, "UC_NAME": "Kudan", "Tehsil": "Dasht", "Province": "Balochistan", "District": "Kech", "Shape_Leng": 2.4203257137600001 }, "geometry": { "type": "Point", "coordinates": [ 62.41236697800008, 25.698359571000026 ] } },
    { "type": "Feature", "properties": { "OBJECTID": 488, "HF_Name": "DRACHKOO", "HF_Type": "BASIC HEALTH UNIT", "Category": "Other", "Latitude": 25.870000839199999, "Longitude": 62.400001525900002, "Functional": "Functional", "Population": 0, "UC_NAME": "Balnigore", "Tehsil": "Kech_(Turbat)", "Province": "Balochistan", "District": "Kech", "Shape_Leng": 6.8566438985299998 }, "geometry": { "type": "Point", "coordinates": [ 62.396655013000043, 25.873470979000047 ] } },
    { "type": "Feature", "properties": { "OBJECTID": 489, "HF_Name": "CHIB REKANI", "HF_Type": "BASIC HEALTH UNIT", "Category": "Other", "Latitude": 25.2999992371, "Longitude": 62.430000305199997, "Functional": "Functional", "Population": 0, "UC_NAME": "Surbandar", "Tehsil": "Gwadar", "Province": "Balochistan", "District": "Gwadar", "Shape_Leng": 2.7269417259300002 }, "geometry": { "type": "Point", "coordinates": [ 62.435433080000053, 25.300771332000068 ] } },
    { "type": "Feature", "properties": { "OBJECTID": 490, "HF_Name": "DARBILLA", "HF_Type": "DISPENSARY", "Category": "Other", "Latitude": 25.309999465899999, "Longitude": 62.520000457800002, "Functional": "Functional", "Population": 0, "UC_NAME": "Surbandar", "Tehsil": "Gwadar", "Province": "Balochistan", "District": "Gwadar", "Shape_Leng": 2.7269417259300002 }, "geometry": { "type": "Point", "coordinates": [ 62.505385087000036, 25.311612661000026 ] } },
    { "type": "Feature", "properties": { "OBJECTID": 491, "HF_Name": "BAN BELLOR", "HF_Type": "DISPENSARY", "Category": "Other", "Latitude": 25.5, "Longitude": 62.540000915500002, "Functional": "Functional", "Population": 0, "UC_NAME": "Nilnat", "Tehsil": "Pasni", "Province": "Balochistan", "District": "Gwadar", "Shape_Leng": 5.7174132287899999 }, "geometry": { "type": "Point", "coordinates": [ 62.538165960000072, 25.502055220000045 ] } },
    { "type": "Feature", "properties": { "OBJECTID": 492, "HF_Name": "RAJEY", "HF_Type": "BASIC HEALTH UNIT", "Category": "Other", "Latitude": 28.270000457799998, "Longitude": 62.580001831099999, "Functional": "Functional", "Population": 0, "UC_NAME": "Nok Kundi", "Tehsil": "Nokkundi", "Province": "Balochistan", "District": "Chagai", "Shape_Leng": 5.7369566702699997 }, "geometry": { "type": "Point", "coordinates": [ 62.584504570000036, 28.27040425000007 ] } },
    { "type": "Feature", "properties": { "OBJECTID": 493, "HF_Name": "BAN BELLOR", "HF_Type": "BASIC HEALTH UNIT", "Category": "Other", "Latitude": 25.5, "Longitude": 62.590000152599998, "Functional": "Functional", "Population": 0, "UC_NAME": "Nilnat", "Tehsil": "Pasni", "Province": "Balochistan", "District": "Gwadar", "Shape_Leng": 5.7174132287899999 }, "geometry": { "type": "Point", "coordinates": [ 62.587429260000079, 25.496083910000038 ] } },
    { "type": "Feature", "properties": { "OBJECTID": 494, "HF_Name": "HARI BELLAR", "HF_Type": "DISPENSARY", "Category": "Other", "Latitude": 25.530000686600001, "Longitude": 62.6100006104, "Functional": "Functional", "Population": 0, "UC_NAME": "Nilnat", "Tehsil": "Pasni", "Province": "Balochistan", "District": "Gwadar", "Shape_Leng": 5.7174132287899999 }, "geometry": { "type": "Point", "coordinates": [ 62.61908591100007, 25.529885683000032 ] } },
    { "type": "Feature", "properties": { "OBJECTID": 495, "HF_Name": "KUNCHITY", "HF_Type": "DISPENSARY", "Category": "Other", "Latitude": 25.790000915499999, "Longitude": 62.6199989319, "Functional": "Functional", "Population": 0, "UC_NAME": "Kuncheti", "Tehsil": "Dasht", "Province": "Balochistan", "District": "Kech", "Shape_Leng": 2.4203257137600001 }, "geometry": { "type": "Point", "coordinates": [ 62.618181891000063, 25.78556353700003 ] } },
    { "type": "Feature", "properties": { "OBJECTID": 496, "HF_Name": "KUNCHITY", "HF_Type": "BASIC HEALTH UNIT", "Category": "Other", "Latitude": 25.7999992371, "Longitude": 62.6199989319, "Functional": "Functional", "Population": 0, "UC_NAME": "Kuncheti", "Tehsil": "Dasht", "Province": "Balochistan", "District": "Kech", "Shape_Leng": 2.4203257137600001 }, "geometry": { "type": "Point", "coordinates": [ 62.618777140000077, 25.80195456000007 ] } },
    { "type": "Feature", "properties": { "OBJECTID": 497, "HF_Name": "DASHT KHUDAN", "HF_Type": "RURAL HEALTH CENTRE", "Category": "Other", "Latitude": 25.690000534100001, "Longitude": 62.6300010681, "Functional": "Functional", "Population": 0, "UC_NAME": "Kudan", "Tehsil": "Dasht", "Province": "Balochistan", "District": "Kech", "Shape_Leng": 2.4203257137600001 }, "geometry": { "type": "Point", "coordinates": [ 62.630841037000039, 25.685197862000052 ] } },
    { "type": "Feature", "properties": { "OBJECTID": 498, "HF_Name": "KUNTI DAR", "HF_Type": "BASIC HEALTH UNIT", "Category": "Other", "Latitude": 25.870000839199999, "Longitude": 62.650001525900002, "Functional": "Functional", "Population": 0, "UC_NAME": "Kuncheti", "Tehsil": "Kech_(Turbat)", "Province": "Balochistan", "District": "Kech", "Shape_Leng": 6.8566438985299998 }, "geometry": { "type": "Point", "coordinates": [ 62.655863241000077, 25.87168738500003 ] } },
    { "type": "Feature", "properties": { "OBJECTID": 499, "HF_Name": "DASHT KUDDAN", "HF_Type": "DISPENSARY", "Category": "Other", "Latitude": 25.75, "Longitude": 62.659999847400002, "Functional": "Functional", "Population": 0, "UC_NAME": "Kuncheti", "Tehsil": "Dasht", "Province": "Balochistan", "District": "Kech", "Shape_Leng": 2.4203257137600001 }, "geometry": { "type": "Point", "coordinates": [ 62.663442640000028, 25.745670860000075 ] } },
    { "type": "Feature", "properties": { "OBJECTID": 500, "HF_Name": "TEHTHANI GITHAN", "HF_Type": "BASIC HEALTH UNIT", "Category": "Other", "Latitude": 26.530000686600001, "Longitude": 62.669998168900001, "Functional": "Functional", "Population": 0, "UC_NAME": "Siehgisi", "Tehsil": "Buleda", "Province": "Balochistan", "District": "Kech", "Shape_Leng": 3.0479890852099998 }, "geometry": { "type": "Point", "coordinates": [ 62.654947978000052, 26.544024315000058 ] } },
    { "type": "Feature", "properties": { "OBJECTID": 501, "HF_Name": "KAPPAR", "HF_Type": "DISPENSARY", "Category": "Other", "Latitude": 25.309999465899999, "Longitude": 62.689998626700003, "Functional": "Functional", "Population": 0, "UC_NAME": "Nilnat", "Tehsil": "Pasni", "Province": "Balochistan", "District": "Gwadar", "Shape_Leng": 5.7174132287899999 }, "geometry": { "type": "Point", "coordinates": [ 62.691240530000073, 25.314215470000079 ] } },
    { "type": "Feature", "properties": { "OBJECTID": 502, "HF_Name": "SIA GAISI", "HF_Type": "DISPENSARY", "Category": "Other", "Latitude": 26.530000686600001, "Longitude": 62.689998626700003, "Functional": "Functional", "Population": 0, "UC_NAME": "Siehgisi", "Tehsil": "Buleda", "Province": "Balochistan", "District": "Kech", "Shape_Leng": 3.0479890852099998 }, "geometry": { "type": "Point", "coordinates": [ 62.690843040000061, 26.531110005000073 ] } },
    { "type": "Feature", "properties": { "OBJECTID": 503, "HF_Name": "NAG ZAMURAN", "HF_Type": "BASIC HEALTH UNIT", "Category": "Other", "Latitude": 26.370000839199999, "Longitude": 62.720001220699999, "Functional": "Functional", "Population": 0, "UC_NAME": "Nag No. 1", "Tehsil": "Buleda", "Province": "Balochistan", "District": "Kech", "Shape_Leng": 3.0479890852099998 }, "geometry": { "type": "Point", "coordinates": [ 62.71928881000008, 26.368121785000028 ] } },
    { "type": "Feature", "properties": { "OBJECTID": 504, "HF_Name": "FAQIRABAD, PASNI", "HF_Type": "DISPENSARY", "Category": "Other", "Latitude": 25.379999160800001, "Longitude": 62.740001678500001, "Functional": "Functional", "Population": 0, "UC_NAME": "Nilnat", "Tehsil": "Pasni", "Province": "Balochistan", "District": "Gwadar", "Shape_Leng": 5.7174132287899999 }, "geometry": { "type": "Point", "coordinates": [ 62.744388740000034, 25.380283490000068 ] } },
    { "type": "Feature", "properties": { "OBJECTID": 505, "HF_Name": "NOKUNDI", "HF_Type": "RURAL HEALTH CENTRE", "Category": "Other", "Latitude": 28.8899993896, "Longitude": 62.75, "Functional": "Functional", "Population": 0, "UC_NAME": "Nok Kundi", "Tehsil": "Nokkundi", "Province": "Balochistan", "District": "Chagai", "Shape_Leng": 5.7369566702699997 }, "geometry": { "type": "Point", "coordinates": [ 62.749226880000037, 28.886611540000047 ] } },
    { "type": "Feature", "properties": { "OBJECTID": 506, "HF_Name": "NOKUNDI", "HF_Type": "MATERNAL & CHILD HEALTH CENTRE", "Category": "Other", "Latitude": 28.840000152599998, "Longitude": 62.75, "Functional": "Functional", "Population": 0, "UC_NAME": "Nok Kundi", "Tehsil": "Nokkundi", "Province": "Balochistan", "District": "Chagai", "Shape_Leng": 5.7369566702699997 }, "geometry": { "type": "Point", "coordinates": [ 62.754374460000065, 28.838996500000064 ] } },
    { "type": "Feature", "properties": { "OBJECTID": 507, "HF_Name": "NALAINT, PASNI", "HF_Type": "BASIC HEALTH UNIT", "Category": "Other", "Latitude": 25.329999923700001, "Longitude": 62.799999237100003, "Functional": "Functional", "Population": 0, "UC_NAME": "Nilnat", "Tehsil": "Pasni", "Province": "Balochistan", "District": "Gwadar", "Shape_Leng": 5.7174132287899999 }, "geometry": { "type": "Point", "coordinates": [ 62.799623350000047, 25.332513010000071 ] } },
    { "type": "Feature", "properties": { "OBJECTID": 509, "HF_Name": "KOCHEO", "HF_Type": "BASIC HEALTH UNIT", "Category": "Other", "Latitude": 25.5499992371, "Longitude": 62.830001831099999, "Functional": "Functional", "Population": 0, "UC_NAME": "Kalag", "Tehsil": "Pasni", "Province": "Balochistan", "District": "Gwadar", "Shape_Leng": 5.7174132287899999 }, "geometry": { "type": "Point", "coordinates": [ 62.833745780000072, 25.548831250000035 ] } },
    { "type": "Feature", "properties": { "OBJECTID": 510, "HF_Name": "KANDA SOL", "HF_Type": "DISPENSARY", "Category": "Other", "Latitude": 25.370000839199999, "Longitude": 62.8899993896, "Functional": "Functional", "Population": 0, "UC_NAME": "Kalag", "Tehsil": "Pasni", "Province": "Balochistan", "District": "Gwadar", "Shape_Leng": 5.7174132287899999 }, "geometry": { "type": "Point", "coordinates": [ 62.885638100000051, 25.365426080000077 ] } },
    { "type": "Feature", "properties": { "OBJECTID": 511, "HF_Name": "KALLAG", "HF_Type": "MATERNAL & CHILD HEALTH CENTRE", "Category": "Other", "Latitude": 25.440000534100001, "Longitude": 62.909999847400002, "Functional": "Functional", "Population": 0, "UC_NAME": "Kalag", "Tehsil": "Pasni", "Province": "Balochistan", "District": "Gwadar", "Shape_Leng": 5.7174132287899999 }, "geometry": { "type": "Point", "coordinates": [ 62.914382437000029, 25.440982458000065 ] } },
    { "type": "Feature", "properties": { "OBJECTID": 512, "HF_Name": "KALLAG", "HF_Type": "BASIC HEALTH UNIT", "Category": "Other", "Latitude": 25.4300003052, "Longitude": 62.919998168900001, "Functional": "Functional", "Population": 0, "UC_NAME": "Kalag", "Tehsil": "Pasni", "Province": "Balochistan", "District": "Gwadar", "Shape_Leng": 5.7174132287899999 }, "geometry": { "type": "Point", "coordinates": [ 62.918840070000044, 25.434617820000028 ] } },
    { "type": "Feature", "properties": { "OBJECTID": 513, "HF_Name": "KALLAG", "HF_Type": "MATERNAL & CHILD HEALTH CENTRE", "Category": "Other", "Latitude": 25.4500007629, "Longitude": 62.919998168900001, "Functional": "Functional", "Population": 0, "UC_NAME": "Kalag", "Tehsil": "Pasni", "Province": "Balochistan", "District": "Gwadar", "Shape_Leng": 5.7174132287899999 }, "geometry": { "type": "Point", "coordinates": [ 62.923245752000071, 25.44611407900004 ] } },
    { "type": "Feature", "properties": { "OBJECTID": 514, "HF_Name": "LAKKUD", "HF_Type": "DISPENSARY", "Category": "Other", "Latitude": 27.8899993896, "Longitude": 62.930000305199997, "Functional": "Functional", "Population": 0, "UC_NAME": "Sohtagan", "Tehsil": "Mashkhel", "Province": "Balochistan", "District": "Washuk", "Shape_Leng": 4.1843730152800003 }, "geometry": { "type": "Point", "coordinates": [ 62.931030440000029, 27.888999200000057 ] } },
    { "type": "Feature", "properties": { "OBJECTID": 515, "HF_Name": "GOKDAN", "HF_Type": "DISPENSARY", "Category": "Other", "Latitude": 26.0, "Longitude": 62.959999084499998, "Functional": "Functional", "Population": 0, "UC_NAME": "Ginna", "Tehsil": "Kech_(Turbat)", "Province": "Balochistan", "District": "Kech", "Shape_Leng": 6.8566438985299998 }, "geometry": { "type": "Point", "coordinates": [ 62.95844599000003, 25.995607100000029 ] } },
    { "type": "Feature", "properties": { "OBJECTID": 516, "HF_Name": "LADAGASHT", "HF_Type": "RURAL HEALTH CENTRE", "Category": "Other", "Latitude": 27.920000076299999, "Longitude": 62.959999084499998, "Functional": "Functional", "Population": 0, "UC_NAME": "Sohtagan", "Tehsil": "Mashkhel", "Province": "Balochistan", "District": "Washuk", "Shape_Leng": 4.1843730152800003 }, "geometry": { "type": "Point", "coordinates": [ 62.949397243000078, 27.903129867000075 ] } },
    { "type": "Feature", "properties": { "OBJECTID": 517, "HF_Name": "DANNUK", "HF_Type": "DISPENSARY", "Category": "Other", "Latitude": 25.969999313399999, "Longitude": 62.959999084499998, "Functional": "Functional", "Population": 0, "UC_NAME": "Gokdan", "Tehsil": "Kech_(Turbat)", "Province": "Balochistan", "District": "Kech", "Shape_Leng": 6.8566438985299998 }, "geometry": { "type": "Point", "coordinates": [ 62.963671890000057, 25.97320314600006 ] } },
    { "type": "Feature", "properties": { "OBJECTID": 518, "HF_Name": "BEHMAN", "HF_Type": "DISPENSARY", "Category": "Other", "Latitude": 25.979999542200002, "Longitude": 63.0, "Functional": "Functional", "Population": 0, "UC_NAME": "Turbat", "Tehsil": "Kech_(Turbat)", "Province": "Balochistan", "District": "Kech", "Shape_Leng": 6.8566438985299998 }, "geometry": { "type": "Point", "coordinates": [ 63.004485883000029, 25.978260877000025 ] } },
    { "type": "Feature", "properties": { "OBJECTID": 519, "HF_Name": "KALAG", "HF_Type": "DISPENSARY", "Category": "Other", "Latitude": 27.8899993896, "Longitude": 63.009998321499999, "Functional": "Functional", "Population": 0, "UC_NAME": "Sohtagan", "Tehsil": "Mashkhel", "Province": "Balochistan", "District": "Washuk", "Shape_Leng": 4.1843730152800003 }, "geometry": { "type": "Point", "coordinates": [ 63.008968598000081, 27.889427315000034 ] } },
    { "type": "Feature", "properties": { "OBJECTID": 520, "HF_Name": "DROBULY", "HF_Type": "BASIC HEALTH UNIT", "Category": "Other", "Latitude": 26.590000152599998, "Longitude": 63.009998321499999, "Functional": "Functional", "Population": 0, "UC_NAME": "Badai", "Tehsil": "Buleda", "Province": "Balochistan", "District": "Kech", "Shape_Leng": 3.0479890852099998 }, "geometry": { "type": "Point", "coordinates": [ 63.023461823000048, 26.588973894000048 ] } },
    { "type": "Feature", "properties": { "OBJECTID": 521, "HF_Name": "KOSH KALAT", "HF_Type": "DISPENSARY", "Category": "Other", "Latitude": 26.020000457799998, "Longitude": 63.009998321499999, "Functional": "Functional", "Population": 0, "UC_NAME": "Turbat", "Tehsil": "Kech_(Turbat)", "Province": "Balochistan", "District": "Kech", "Shape_Leng": 6.8566438985299998 }, "geometry": { "type": "Point", "coordinates": [ 63.013176786000031, 26.015660788000048 ] } },
    { "type": "Feature", "properties": { "OBJECTID": 522, "HF_Name": "TAGAP", "HF_Type": "DISPENSARY", "Category": "Other", "Latitude": 27.920000076299999, "Longitude": 63.020000457800002, "Functional": "Functional", "Population": 0, "UC_NAME": "Sohtagan", "Tehsil": "Mashkhel", "Province": "Balochistan", "District": "Washuk", "Shape_Leng": 4.1843730152800003 }, "geometry": { "type": "Point", "coordinates": [ 63.015647270000045, 27.920069440000077 ] } },
    { "type": "Feature", "properties": { "OBJECTID": 523, "HF_Name": "MOBILE 1 TURBAT", "HF_Type": "DISPENSARY", "Category": "Other", "Latitude": 25.989999771099999, "Longitude": 63.040000915500002, "Functional": "Functional", "Population": 0, "UC_NAME": "Turbat", "Tehsil": "Kech_(Turbat)", "Province": "Balochistan", "District": "Kech", "Shape_Leng": 6.8566438985299998 }, "geometry": { "type": "Point", "coordinates": [ 63.03641533800004, 25.99166152600003 ] } },
    { "type": "Feature", "properties": { "OBJECTID": 524, "HF_Name": "KALLAGE TURBAT", "HF_Type": "DISPENSARY", "Category": "Other", "Latitude": 26.0499992371, "Longitude": 63.040000915500002, "Functional": "Functional", "Population": 0, "UC_NAME": "Turbat", "Tehsil": "Kech_(Turbat)", "Province": "Balochistan", "District": "Kech", "Shape_Leng": 6.8566438985299998 }, "geometry": { "type": "Point", "coordinates": [ 63.035682588000043, 26.04666596900006 ] } },
    { "type": "Feature", "properties": { "OBJECTID": 525, "HF_Name": "SHAHI TUMP", "HF_Type": "DISPENSARY", "Category": "Other", "Latitude": 26.010000228900001, "Longitude": 63.040000915500002, "Functional": "Functional", "Population": 0, "UC_NAME": "Turbat", "Tehsil": "Kech_(Turbat)", "Province": "Balochistan", "District": "Kech", "Shape_Leng": 6.8566438985299998 }, "geometry": { "type": "Point", "coordinates": [ 63.042321700000059, 26.007320420000042 ] } },
    { "type": "Feature", "properties": { "OBJECTID": 526, "HF_Name": "JUSAK", "HF_Type": "BASIC HEALTH UNIT", "Category": "Other", "Latitude": 25.969999313399999, "Longitude": 63.040000915500002, "Functional": "Functional", "Population": 0, "UC_NAME": "Turbat", "Tehsil": "Kech_(Turbat)", "Province": "Balochistan", "District": "Kech", "Shape_Leng": 6.8566438985299998 }, "geometry": { "type": "Point", "coordinates": [ 63.044413360000078, 25.97008881000005 ] } },
    { "type": "Feature", "properties": { "OBJECTID": 527, "HF_Name": "TURBAT", "HF_Type": "MATERNAL & CHILD HEALTH CENTRE", "Category": "Other", "Latitude": 26.010000228900001, "Longitude": 63.060001373299997, "Functional": "Functional", "Population": 0, "UC_NAME": "Turbat", "Tehsil": "Kech_(Turbat)", "Province": "Balochistan", "District": "Kech", "Shape_Leng": 6.8566438985299998 }, "geometry": { "type": "Point", "coordinates": [ 63.060180409000054, 26.013636629000075 ] } },
    { "type": "Feature", "properties": { "OBJECTID": 528, "HF_Name": "MOBILE 2 TURBAT", "HF_Type": "DISPENSARY", "Category": "Other", "Latitude": 26.0, "Longitude": 63.060001373299997, "Functional": "Functional", "Population": 0, "UC_NAME": "Turbat", "Tehsil": "Kech_(Turbat)", "Province": "Balochistan", "District": "Kech", "Shape_Leng": 6.8566438985299998 }, "geometry": { "type": "Point", "coordinates": [ 63.059055010000066, 26.004182920000062 ] } },
    { "type": "Feature", "properties": { "OBJECTID": 529, "HF_Name": "LEPROSYHOSPITAL, KE*", "HF_Type": "HOSPITAL", "Category": "Other", "Latitude": 25.969999313399999, "Longitude": 63.069999694800003, "Functional": "Functional", "Population": 0, "UC_NAME": "Turbat", "Tehsil": "Kech_(Turbat)", "Province": "Balochistan", "District": "Kech", "Shape_Leng": 6.8566438985299998 }, "geometry": { "type": "Point", "coordinates": [ 63.061569251000037, 25.972779530000025 ] } },
    { "type": "Feature", "properties": { "OBJECTID": 530, "HF_Name": "DIVISIONAL HQHOSPIT*", "HF_Type": "HOSPITAL", "Category": "Other", "Latitude": 25.979999542200002, "Longitude": 63.069999694800003, "Functional": "Functional", "Population": 0, "UC_NAME": "Turbat", "Tehsil": "Kech_(Turbat)", "Province": "Balochistan", "District": "Kech", "Shape_Leng": 6.8566438985299998 }, "geometry": { "type": "Point", "coordinates": [ 63.076469785000029, 25.986005082000077 ] } },
    { "type": "Feature", "properties": { "OBJECTID": 531, "HF_Name": "ABSAR", "HF_Type": "DISPENSARY", "Category": "Other", "Latitude": 26.0, "Longitude": 63.080001831099999, "Functional": "Functional", "Population": 0, "UC_NAME": "Turbat", "Tehsil": "Kech_(Turbat)", "Province": "Balochistan", "District": "Kech", "Shape_Leng": 6.8566438985299998 }, "geometry": { "type": "Point", "coordinates": [ 63.077043310000079, 25.997280430000046 ] } },
    { "type": "Feature", "properties": { "OBJECTID": 532, "HF_Name": "MERRI", "HF_Type": "DISPENSARY", "Category": "Other", "Latitude": 26.040000915499999, "Longitude": 63.080001831099999, "Functional": "Functional", "Population": 0, "UC_NAME": "Turbat", "Tehsil": "Kech_(Turbat)", "Province": "Balochistan", "District": "Kech", "Shape_Leng": 6.8566438985299998 }, "geometry": { "type": "Point", "coordinates": [ 63.078089150000039, 26.044970360000036 ] } },
    { "type": "Feature", "properties": { "OBJECTID": 533, "HF_Name": "TEHDAIM ZAMRAN", "HF_Type": "BASIC HEALTH UNIT", "Category": "Other", "Latitude": 26.600000381499999, "Longitude": 63.090000152599998, "Functional": "Functional", "Population": 0, "UC_NAME": "Badai", "Tehsil": "Buleda", "Province": "Balochistan", "District": "Kech", "Shape_Leng": 3.0479890852099998 }, "geometry": { "type": "Point", "coordinates": [ 63.084551784000041, 26.603785989000073 ] } },
    { "type": "Feature", "properties": { "OBJECTID": 534, "HF_Name": "ABSAR", "HF_Type": "MATERNAL & CHILD HEALTH CENTRE", "Category": "Other", "Latitude": 26.0, "Longitude": 63.090000152599998, "Functional": "Functional", "Population": 0, "UC_NAME": "Turbat", "Tehsil": "Kech_(Turbat)", "Province": "Balochistan", "District": "Kech", "Shape_Leng": 6.8566438985299998 }, "geometry": { "type": "Point", "coordinates": [ 63.087152929000069, 25.998863608000079 ] } },
    { "type": "Feature", "properties": { "OBJECTID": 535, "HF_Name": "MENAZ", "HF_Type": "DISPENSARY", "Category": "Other", "Latitude": 26.290000915499999, "Longitude": 63.090000152599998, "Functional": "Functional", "Population": 0, "UC_NAME": "Bit", "Tehsil": "Buleda", "Province": "Balochistan", "District": "Kech", "Shape_Leng": 3.0479890852099998 }, "geometry": { "type": "Point", "coordinates": [ 63.094679400000075, 26.293398720000027 ] } },
    { "type": "Feature", "properties": { "OBJECTID": 536, "HF_Name": "SULO BULLEDA", "HF_Type": "DISPENSARY", "Category": "Other", "Latitude": 26.309999465899999, "Longitude": 63.1300010681, "Functional": "Functional", "Population": 0, "UC_NAME": "Bit", "Tehsil": "Buleda", "Province": "Balochistan", "District": "Kech", "Shape_Leng": 3.0479890852099998 }, "geometry": { "type": "Point", "coordinates": [ 63.106322532000036, 26.301291691000074 ] } },
    { "type": "Feature", "properties": { "OBJECTID": 537, "HF_Name": "TAGAZ", "HF_Type": "DISPENSARY", "Category": "Other", "Latitude": 28.100000381499999, "Longitude": 63.180000305199997, "Functional": "Functional", "Population": 0, "UC_NAME": "Ladgasht", "Tehsil": "Mashkhel", "Province": "Balochistan", "District": "Washuk", "Shape_Leng": 4.1843730152800003 }, "geometry": { "type": "Point", "coordinates": [ 63.175312003000045, 28.09809901400007 ] } },
    { "type": "Feature", "properties": { "OBJECTID": 538, "HF_Name": "KOSHK BULEDA", "HF_Type": "DISPENSARY", "Category": "Other", "Latitude": 26.2999992371, "Longitude": 63.189998626700003, "Functional": "Functional", "Population": 0, "UC_NAME": "Bit", "Tehsil": "Buleda", "Province": "Balochistan", "District": "Kech", "Shape_Leng": 3.0479890852099998 }, "geometry": { "type": "Point", "coordinates": [ 63.187330535000058, 26.297593430000063 ] } },
    { "type": "Feature", "properties": { "OBJECTID": 539, "HF_Name": "ABBABKRI", "HF_Type": "DISPENSARY", "Category": "Other", "Latitude": 28.040000915499999, "Longitude": 63.209999084499998, "Functional": "Functional", "Population": 0, "UC_NAME": "Ladgasht", "Tehsil": "Mashkhel", "Province": "Balochistan", "District": "Washuk", "Shape_Leng": 4.1843730152800003 }, "geometry": { "type": "Point", "coordinates": [ 63.211984750000056, 28.039722920000031 ] } },
    { "type": "Feature", "properties": { "OBJECTID": 540, "HF_Name": "DRAMKOOL", "HF_Type": "DISPENSARY", "Category": "Other", "Latitude": 25.840000152599998, "Longitude": 63.209999084499998, "Functional": "Functional", "Population": 0, "UC_NAME": "Pidrak", "Tehsil": "Kech_(Turbat)", "Province": "Balochistan", "District": "Kech", "Shape_Leng": 6.8566438985299998 }, "geometry": { "type": "Point", "coordinates": [ 63.214530121000053, 25.842620987000032 ] } },
    { "type": "Feature", "properties": { "OBJECTID": 541, "HF_Name": "PASSI", "HF_Type": "BASIC HEALTH UNIT", "Category": "Other", "Latitude": 28.059999465899999, "Longitude": 63.229999542199998, "Functional": "Functional", "Population": 0, "UC_NAME": "Ladgasht", "Tehsil": "Mashkhel", "Province": "Balochistan", "District": "Washuk", "Shape_Leng": 4.1843730152800003 }, "geometry": { "type": "Point", "coordinates": [ 63.230179915000065, 28.067126388000077 ] } },
    { "type": "Feature", "properties": { "OBJECTID": 542, "HF_Name": "PIDARK", "HF_Type": "DISPENSARY", "Category": "Other", "Latitude": 25.840000152599998, "Longitude": 63.229999542199998, "Functional": "Functional", "Population": 0, "UC_NAME": "Pidrak", "Tehsil": "Kech_(Turbat)", "Province": "Balochistan", "District": "Kech", "Shape_Leng": 6.8566438985299998 }, "geometry": { "type": "Point", "coordinates": [ 63.233006660000058, 25.840056080000068 ] } },
    { "type": "Feature", "properties": { "OBJECTID": 543, "HF_Name": "SAR DUSHT, PASNI", "HF_Type": "DISPENSARY", "Category": "Other", "Latitude": 25.469999313399999, "Longitude": 63.240001678500001, "Functional": "Functional", "Population": 0, "UC_NAME": "Kalag", "Tehsil": "Pasni", "Province": "Balochistan", "District": "Gwadar", "Shape_Leng": 5.7174132287899999 }, "geometry": { "type": "Point", "coordinates": [ 63.242902318000063, 25.463652333000027 ] } },
    { "type": "Feature", "properties": { "OBJECTID": 544, "HF_Name": "CHUR BANDER, PASNI", "HF_Type": "DISPENSARY", "Category": "Other", "Latitude": 25.239999771099999, "Longitude": 63.240001678500001, "Functional": "Functional", "Population": 0, "UC_NAME": "Kalag", "Tehsil": "Pasni", "Province": "Balochistan", "District": "Gwadar", "Shape_Leng": 5.7174132287899999 }, "geometry": { "type": "Point", "coordinates": [ 63.246198906000075, 25.247592104000034 ] } },
    { "type": "Feature", "properties": { "OBJECTID": 545, "HF_Name": "PAT GONAKO", "HF_Type": "BASIC HEALTH UNIT", "Category": "Other", "Latitude": 28.780000686600001, "Longitude": 63.25, "Functional": "Functional", "Population": 0, "UC_NAME": "Nok Kundi", "Tehsil": "Nokkundi", "Province": "Balochistan", "District": "Chagai", "Shape_Leng": 5.7369566702699997 }, "geometry": { "type": "Point", "coordinates": [ 63.251115170000048, 28.781086310000035 ] } },
    { "type": "Feature", "properties": { "OBJECTID": 546, "HF_Name": "PAROOM", "HF_Type": "DISPENSARY", "Category": "Other", "Latitude": 26.670000076299999, "Longitude": 63.310001373299997, "Functional": "Functional", "Population": 0, "UC_NAME": "Paroome", "Tehsil": "Jaheen_Parome", "Province": "Balochistan", "District": "Panjgur", "Shape_Leng": 4.0468623741699998 }, "geometry": { "type": "Point", "coordinates": [ 63.305105844000082, 26.676816775000077 ] } },
    { "type": "Feature", "properties": { "OBJECTID": 547, "HF_Name": "NOKCHA", "HF_Type": "DISPENSARY", "Category": "Other", "Latitude": 27.659999847400002, "Longitude": 63.310001373299997, "Functional": "Functional", "Population": 0, "UC_NAME": "Sohtagan", "Tehsil": "Mashkhel", "Province": "Balochistan", "District": "Washuk", "Shape_Leng": 4.1843730152800003 }, "geometry": { "type": "Point", "coordinates": [ 63.313128300000074, 27.664896820000024 ] } },
    { "type": "Feature", "properties": { "OBJECTID": 548, "HF_Name": "PAROOM", "HF_Type": "RURAL HEALTH CENTRE", "Category": "Other", "Latitude": 26.649999618500001, "Longitude": 63.319999694800003, "Functional": "Functional", "Population": 0, "UC_NAME": "Paroome", "Tehsil": "Jaheen_Parome", "Province": "Balochistan", "District": "Panjgur", "Shape_Leng": 4.0468623741699998 }, "geometry": { "type": "Point", "coordinates": [ 63.320905309000068, 26.644809836000036 ] } },
    { "type": "Feature", "properties": { "OBJECTID": 549, "HF_Name": "SHAHRAK", "HF_Type": "DISPENSARY", "Category": "Other", "Latitude": 26.030000686600001, "Longitude": 63.340000152599998, "Functional": "Functional", "Population": 0, "UC_NAME": "Shahrak", "Tehsil": "Kech_(Turbat)", "Province": "Balochistan", "District": "Kech", "Shape_Leng": 6.8566438985299998 }, "geometry": { "type": "Point", "coordinates": [ 63.337314450000065, 26.031772620000027 ] } },
    { "type": "Feature", "properties": { "OBJECTID": 550, "HF_Name": "JULLI", "HF_Type": "DISPENSARY", "Category": "Other", "Latitude": 29.090000152599998, "Longitude": 63.349998474099998, "Functional": "Functional", "Population": 0, "UC_NAME": "Amri", "Tehsil": "Dalbandin", "Province": "Balochistan", "District": "Chagai", "Shape_Leng": 6.1727599125900001 }, "geometry": { "type": "Point", "coordinates": [ 63.348919050000063, 29.093801320000068 ] } },
    { "type": "Feature", "properties": { "OBJECTID": 551, "HF_Name": "PASNI", "HF_Type": "LEPROSY CENTRE", "Category": "Other", "Latitude": 25.239999771099999, "Longitude": 63.3699989319, "Functional": "Functional", "Population": 0, "UC_NAME": "Pasni Southern", "Tehsil": "Pasni", "Province": "Balochistan", "District": "Gwadar", "Shape_Leng": 5.7174132287899999 }, "geometry": { "type": "Point", "coordinates": [ 63.462687005000078, 25.239793700000064 ] } },
    { "type": "Feature", "properties": { "OBJECTID": 552, "HF_Name": "POST OFFICE PASNI", "HF_Type": "RURAL HEALTH CENTRE", "Category": "Other", "Latitude": 25.290000915499999, "Longitude": 63.400001525900002, "Functional": "Functional", "Population": 0, "UC_NAME": "Kalag", "Tehsil": "Pasni", "Province": "Balochistan", "District": "Gwadar", "Shape_Leng": 5.7174132287899999 }, "geometry": { "type": "Point", "coordinates": [ 63.404667160000031, 25.286627410000051 ] } },
    { "type": "Feature", "properties": { "OBJECTID": 553, "HF_Name": "JAMAK", "HF_Type": "DISPENSARY", "Category": "Other", "Latitude": 25.840000152599998, "Longitude": 63.409999847400002, "Functional": "Functional", "Population": 0, "UC_NAME": "Pidrak", "Tehsil": "Kech_(Turbat)", "Province": "Balochistan", "District": "Kech", "Shape_Leng": 6.8566438985299998 }, "geometry": { "type": "Point", "coordinates": [ 63.398701954000046, 25.844663339000078 ] } },
    { "type": "Feature", "properties": { "OBJECTID": 554, "HF_Name": "SAMI", "HF_Type": "BASIC HEALTH UNIT", "Category": "Other", "Latitude": 26.030000686600001, "Longitude": 63.409999847400002, "Functional": "Functional", "Population": 0, "UC_NAME": "Shahrak", "Tehsil": "Kech_(Turbat)", "Province": "Balochistan", "District": "Kech", "Shape_Leng": 6.8566438985299998 }, "geometry": { "type": "Point", "coordinates": [ 63.415579511000033, 26.033643742000038 ] } },
    { "type": "Feature", "properties": { "OBJECTID": 555, "HF_Name": "SOUR CHEEL", "HF_Type": "BASIC HEALTH UNIT", "Category": "Other", "Latitude": 26.6100006104, "Longitude": 63.419998168900001, "Functional": "Functional", "Population": 0, "UC_NAME": "Kohe Ban", "Tehsil": "Jaheen_Parome", "Province": "Balochistan", "District": "Panjgur", "Shape_Leng": 4.0468623741699998 }, "geometry": { "type": "Point", "coordinates": [ 63.415170931000034, 26.623702179000077 ] } },
    { "type": "Feature", "properties": { "OBJECTID": 556, "HF_Name": "SARAGI", "HF_Type": "SUB HEALTH CENTRE", "Category": "Other", "Latitude": 28.0499992371, "Longitude": 63.430000305199997, "Functional": "Functional", "Population": 0, "UC_NAME": "Ladgasht", "Tehsil": "Mashkhel", "Province": "Balochistan", "District": "Washuk", "Shape_Leng": 4.1843730152800003 }, "geometry": { "type": "Point", "coordinates": [ 63.430137510000066, 28.046333610000033 ] } },
    { "type": "Feature", "properties": { "OBJECTID": 557, "HF_Name": "BABEOR SHORE, PASNI", "HF_Type": "DISPENSARY", "Category": "Other", "Latitude": 25.260000228900001, "Longitude": 63.430000305199997, "Functional": "Functional", "Population": 0, "UC_NAME": "Pasni Northern", "Tehsil": "Pasni", "Province": "Balochistan", "District": "Gwadar", "Shape_Leng": 5.7174132287899999 }, "geometry": { "type": "Point", "coordinates": [ 63.468285454000068, 25.270954478000078 ] } },
    { "type": "Feature", "properties": { "OBJECTID": 558, "HF_Name": "TUMP", "HF_Type": "DISPENSARY", "Category": "Other", "Latitude": 27.270000457799998, "Longitude": 63.450000762899997, "Functional": "Functional", "Population": 0, "UC_NAME": "Sohtagan", "Tehsil": "Mashkhel", "Province": "Balochistan", "District": "Washuk", "Shape_Leng": 4.1843730152800003 }, "geometry": { "type": "Point", "coordinates": [ 63.445660395000061, 27.270576131000041 ] } },
    { "type": "Feature", "properties": { "OBJECTID": 559, "HF_Name": "PASNI", "HF_Type": "MATERNAL & CHILD HEALTH CENTRE", "Category": "Other", "Latitude": 25.290000915499999, "Longitude": 63.450000762899997, "Functional": "Functional", "Population": 0, "UC_NAME": "Pasni Northern", "Tehsil": "Pasni", "Province": "Balochistan", "District": "Gwadar", "Shape_Leng": 5.7174132287899999 }, "geometry": { "type": "Point", "coordinates": [ 63.442875087000061, 25.294271120000076 ] } },
    { "type": "Feature", "properties": { "OBJECTID": 560, "HF_Name": "PATKAN", "HF_Type": "DISPENSARY", "Category": "Other", "Latitude": 27.9300003052, "Longitude": 63.450000762899997, "Functional": "Functional", "Population": 0, "UC_NAME": "Ladgasht", "Tehsil": "Mashkhel", "Province": "Balochistan", "District": "Washuk", "Shape_Leng": 4.1843730152800003 }, "geometry": { "type": "Point", "coordinates": [ 63.453935990000048, 27.925357990000066 ] } },
    { "type": "Feature", "properties": { "OBJECTID": 561, "HF_Name": "DIZ PAROOM", "HF_Type": "BASIC HEALTH UNIT", "Category": "Other", "Latitude": 26.6399993896, "Longitude": 63.479999542199998, "Functional": "Functional", "Population": 0, "UC_NAME": "Kohe Ban", "Tehsil": "Jaheen_Parome", "Province": "Balochistan", "District": "Panjgur", "Shape_Leng": 4.0468623741699998 }, "geometry": { "type": "Point", "coordinates": [ 63.482192564000059, 26.641052099000035 ] } },
    { "type": "Feature", "properties": { "OBJECTID": 562, "HF_Name": "GAR", "HF_Type": "BASIC HEALTH UNIT", "Category": "Other", "Latitude": 26.870000839199999, "Longitude": 63.520000457800002, "Functional": "Functional", "Population": 0, "UC_NAME": "Dasht-E-Shahbaz", "Tehsil": "Gowargo", "Province": "Balochistan", "District": "Panjgur", "Shape_Leng": 3.84193719185 }, "geometry": { "type": "Point", "coordinates": [ 63.530091693000031, 26.841348036000056 ] } },
    { "type": "Feature", "properties": { "OBJECTID": 563, "HF_Name": "GWARKOP", "HF_Type": "DISPENSARY", "Category": "Other", "Latitude": 25.870000839199999, "Longitude": 63.540000915500002, "Functional": "Functional", "Population": 0, "UC_NAME": "Pidrak", "Tehsil": "Kech_(Turbat)", "Province": "Balochistan", "District": "Kech", "Shape_Leng": 6.8566438985299998 }, "geometry": { "type": "Point", "coordinates": [ 63.536883882000041, 25.874396688000047 ] } },
    { "type": "Feature", "properties": { "OBJECTID": 564, "HF_Name": "SOLANI", "HF_Type": "DISPENSARY", "Category": "Other", "Latitude": 25.840000152599998, "Longitude": 63.540000915500002, "Functional": "Functional", "Population": 0, "UC_NAME": "Pidrak", "Tehsil": "Kech_(Turbat)", "Province": "Balochistan", "District": "Kech", "Shape_Leng": 6.8566438985299998 }, "geometry": { "type": "Point", "coordinates": [ 63.546254155000042, 25.848897486000055 ] } },
    { "type": "Feature", "properties": { "OBJECTID": 565, "HF_Name": "NUKUR", "HF_Type": "DISPENSARY", "Category": "Other", "Latitude": 27.0, "Longitude": 63.549999237100003, "Functional": "Functional", "Population": 0, "UC_NAME": "Dasht-E-Shahbaz", "Tehsil": "Gowargo", "Province": "Balochistan", "District": "Panjgur", "Shape_Leng": 3.84193719185 }, "geometry": { "type": "Point", "coordinates": [ 63.549921108000035, 26.996848672000056 ] } },
    { "type": "Feature", "properties": { "OBJECTID": 566, "HF_Name": "BASLANI", "HF_Type": "BASIC HEALTH UNIT", "Category": "Other", "Latitude": 29.219999313399999, "Longitude": 63.580001831099999, "Functional": "Functional", "Population": 0, "UC_NAME": "Amri", "Tehsil": "Dalbandin", "Province": "Balochistan", "District": "Chagai", "Shape_Leng": 6.1727599125900001 }, "geometry": { "type": "Point", "coordinates": [ 63.58496782900005, 29.216661372000033 ] } },
    { "type": "Feature", "properties": { "OBJECTID": 567, "HF_Name": "HIROOK", "HF_Type": "BASIC HEALTH UNIT", "Category": "Other", "Latitude": 26.010000228900001, "Longitude": 63.599998474099998, "Functional": "Functional", "Population": 0, "UC_NAME": "Shahrak", "Tehsil": "Kech_(Turbat)", "Province": "Balochistan", "District": "Kech", "Shape_Leng": 6.8566438985299998 }, "geometry": { "type": "Point", "coordinates": [ 63.598485179000079, 26.01005417500005 ] } },
    { "type": "Feature", "properties": { "OBJECTID": 568, "HF_Name": "AMRI", "HF_Type": "DISPENSARY", "Category": "Other", "Latitude": 29.229999542200002, "Longitude": 63.6100006104, "Functional": "Functional", "Population": 0, "UC_NAME": "Amri", "Tehsil": "Dalbandin", "Province": "Balochistan", "District": "Chagai", "Shape_Leng": 6.1727599125900001 }, "geometry": { "type": "Point", "coordinates": [ 63.611445230000072, 29.229729400000053 ] } },
    { "type": "Feature", "properties": { "OBJECTID": 569, "HF_Name": "KALEERO", "HF_Type": "DISPENSARY", "Category": "Other", "Latitude": 25.579999923700001, "Longitude": 63.680000305199997, "Functional": "Functional", "Population": 0, "UC_NAME": "Singanisar", "Tehsil": "Kech_(Turbat)", "Province": "Balochistan", "District": "Kech", "Shape_Leng": 6.8566438985299998 }, "geometry": { "type": "Point", "coordinates": [ 63.676460430000077, 25.578995260000056 ] } },
    { "type": "Feature", "properties": { "OBJECTID": 570, "HF_Name": "HOSHAB", "HF_Type": "DISPENSARY", "Category": "Other", "Latitude": 26.020000457799998, "Longitude": 63.849998474099998, "Functional": "Functional", "Population": 0, "UC_NAME": "Hoshab", "Tehsil": "Kech_(Turbat)", "Province": "Balochistan", "District": "Kech", "Shape_Leng": 6.8566438985299998 }, "geometry": { "type": "Point", "coordinates": [ 63.863591500000041, 26.009625047000043 ] } },
    { "type": "Feature", "properties": { "OBJECTID": 571, "HF_Name": "YEK MACH", "HF_Type": "DISPENSARY", "Category": "Other", "Latitude": 28.739999771099999, "Longitude": 63.8699989319, "Functional": "Functional", "Population": 0, "UC_NAME": "Chilgazi", "Tehsil": "Dalbandin", "Province": "Balochistan", "District": "Chagai", "Shape_Leng": 6.1727599125900001 }, "geometry": { "type": "Point", "coordinates": [ 63.866250050000076, 28.735401610000054 ] } },
    { "type": "Feature", "properties": { "OBJECTID": 572, "HF_Name": "PEELKOH", "HF_Type": "DISPENSARY", "Category": "Other", "Latitude": 26.9300003052, "Longitude": 63.950000762899997, "Functional": "Functional", "Population": 0, "UC_NAME": "Tasp", "Tehsil": "Panjgur", "Province": "Balochistan", "District": "Panjgur", "Shape_Leng": 3.9180525843099998 }, "geometry": { "type": "Point", "coordinates": [ 63.955445775000044, 26.932418748000032 ] } },
    { "type": "Feature", "properties": { "OBJECTID": 573, "HF_Name": "SANGI KALAT", "HF_Type": "DISPENSARY", "Category": "Other", "Latitude": 26.6399993896, "Longitude": 63.950000762899997, "Functional": "Functional", "Population": 0, "UC_NAME": "Dasht-E-Shahbaz", "Tehsil": "Gowargo", "Province": "Balochistan", "District": "Panjgur", "Shape_Leng": 3.84193719185 }, "geometry": { "type": "Point", "coordinates": [ 63.949379838000027, 26.646301280000046 ] } },
    { "type": "Feature", "properties": { "OBJECTID": 574, "HF_Name": "DASHT-E-SHAHBAZ", "HF_Type": "DISPENSARY", "Category": "Other", "Latitude": 26.709999084500001, "Longitude": 63.959999084499998, "Functional": "Functional", "Population": 0, "UC_NAME": "Bonistan", "Tehsil": "Gowargo", "Province": "Balochistan", "District": "Panjgur", "Shape_Leng": 3.84193719185 }, "geometry": { "type": "Point", "coordinates": [ 63.958143704000065, 26.711008992000075 ] } },
    { "type": "Feature", "properties": { "OBJECTID": 575, "HF_Name": "KALLAG", "HF_Type": "BASIC HEALTH UNIT", "Category": "Other", "Latitude": 26.940000534100001, "Longitude": 63.959999084499998, "Functional": "Functional", "Population": 0, "UC_NAME": "Tasp", "Tehsil": "Panjgur", "Province": "Balochistan", "District": "Panjgur", "Shape_Leng": 3.9180525843099998 }, "geometry": { "type": "Point", "coordinates": [ 63.962951210000028, 26.941762770000025 ] } },
    { "type": "Feature", "properties": { "OBJECTID": 576, "HF_Name": "RAHI NIGOR", "HF_Type": "BASIC HEALTH UNIT", "Category": "Other", "Latitude": 26.690000534100001, "Longitude": 63.970001220699999, "Functional": "Functional", "Population": 0, "UC_NAME": "Bonistan", "Tehsil": "Gowargo", "Province": "Balochistan", "District": "Panjgur", "Shape_Leng": 3.84193719185 }, "geometry": { "type": "Point", "coordinates": [ 63.994162910000057, 26.693189443000051 ] } },
    { "type": "Feature", "properties": { "OBJECTID": 577, "HF_Name": "BALGATHER", "HF_Type": "BASIC HEALTH UNIT", "Category": "Other", "Latitude": 26.170000076299999, "Longitude": 64.010002136200001, "Functional": "Functional", "Population": 0, "UC_NAME": "Hoshab", "Tehsil": "Kech_(Turbat)", "Province": "Balochistan", "District": "Kech", "Shape_Leng": 6.8566438985299998 }, "geometry": { "type": "Point", "coordinates": [ 64.009196430000031, 26.166964840000048 ] } },
    { "type": "Feature", "properties": { "OBJECTID": 578, "HF_Name": "KATAGRARY", "HF_Type": "BASIC HEALTH UNIT", "Category": "Other", "Latitude": 26.760000228900001, "Longitude": 64.019996643100001, "Functional": "Functional", "Population": 0, "UC_NAME": "Bonistan", "Tehsil": "Gowargo", "Province": "Balochistan", "District": "Panjgur", "Shape_Leng": 3.84193719185 }, "geometry": { "type": "Point", "coordinates": [ 64.027177840000036, 26.755865373000063 ] } },
    { "type": "Feature", "properties": { "OBJECTID": 579, "HF_Name": "BONISTAN", "HF_Type": "BASIC HEALTH UNIT", "Category": "Other", "Latitude": 26.9300003052, "Longitude": 64.029998779300001, "Functional": "Functional", "Population": 0, "UC_NAME": "Issai", "Tehsil": "Panjgur", "Province": "Balochistan", "District": "Panjgur", "Shape_Leng": 3.9180525843099998 }, "geometry": { "type": "Point", "coordinates": [ 64.033110879000048, 26.928271414000051 ] } },
    { "type": "Feature", "properties": { "OBJECTID": 580, "HF_Name": "ISSAI", "HF_Type": "SUB HEALTH CENTRE", "Category": "Other", "Latitude": 26.9500007629, "Longitude": 64.029998779300001, "Functional": "Functional", "Population": 0, "UC_NAME": "Issai", "Tehsil": "Panjgur", "Province": "Balochistan", "District": "Panjgur", "Shape_Leng": 3.9180525843099998 }, "geometry": { "type": "Point", "coordinates": [ 64.033311984000079, 26.946668653000074 ] } },
    { "type": "Feature", "properties": { "OBJECTID": 581, "HF_Name": "TASP", "HF_Type": "MATERNAL & CHILD HEALTH CENTRE", "Category": "Other", "Latitude": 26.969999313399999, "Longitude": 64.040000915500002, "Functional": "Functional", "Population": 0, "UC_NAME": "Khudbadan West", "Tehsil": "Panjgur", "Province": "Balochistan", "District": "Panjgur", "Shape_Leng": 3.9180525843099998 }, "geometry": { "type": "Point", "coordinates": [ 64.038607130000059, 26.973640270000033 ] } },
    { "type": "Feature", "properties": { "OBJECTID": 582, "HF_Name": "TASP", "HF_Type": "SUB HEALTH CENTRE", "Category": "Other", "Latitude": 26.979999542200002, "Longitude": 64.040000915500002, "Functional": "Functional", "Population": 0, "UC_NAME": "Khudbadan West", "Tehsil": "Panjgur", "Province": "Balochistan", "District": "Panjgur", "Shape_Leng": 3.9180525843099998 }, "geometry": { "type": "Point", "coordinates": [ 64.041582370000071, 26.978315640000062 ] } },
    { "type": "Feature", "properties": { "OBJECTID": 583, "HF_Name": "NOKEABAD TASP", "HF_Type": "DISPENSARY", "Category": "Other", "Latitude": 26.969999313399999, "Longitude": 64.080001831100006, "Functional": "Functional", "Population": 0, "UC_NAME": "Khudbadan East", "Tehsil": "Panjgur", "Province": "Balochistan", "District": "Panjgur", "Shape_Leng": 3.9180525843099998 }, "geometry": { "type": "Point", "coordinates": [ 64.078933937000045, 26.975186677000067 ] } },
    { "type": "Feature", "properties": { "OBJECTID": 584, "HF_Name": "PANJGUR", "HF_Type": "LEPROSY CENTRE", "Category": "Other", "Latitude": 26.959999084500001, "Longitude": 64.099998474100005, "Functional": "Functional", "Population": 0, "UC_NAME": "Chitkan", "Tehsil": "Panjgur", "Province": "Balochistan", "District": "Panjgur", "Shape_Leng": 3.9180525843099998 }, "geometry": { "type": "Point", "coordinates": [ 64.098077190000083, 26.958215210000049 ] } },
    { "type": "Feature", "properties": { "OBJECTID": 585, "HF_Name": "PANCHI", "HF_Type": "DISPENSARY", "Category": "Other", "Latitude": 26.979999542200002, "Longitude": 64.099998474100005, "Functional": "Functional", "Population": 0, "UC_NAME": "Chitkan", "Tehsil": "Panjgur", "Province": "Balochistan", "District": "Panjgur", "Shape_Leng": 3.9180525843099998 }, "geometry": { "type": "Point", "coordinates": [ 64.101704730000051, 26.977640110000038 ] } },
    { "type": "Feature", "properties": { "OBJECTID": 586, "HF_Name": "GRAMKHA", "HF_Type": "BASIC HEALTH UNIT", "Category": "Other", "Latitude": 26.989999771099999, "Longitude": 64.110000610399993, "Functional": "Functional", "Population": 0, "UC_NAME": "Gramkan", "Tehsil": "Panjgur", "Province": "Balochistan", "District": "Panjgur", "Shape_Leng": 3.9180525843099998 }, "geometry": { "type": "Point", "coordinates": [ 64.110832090000031, 26.994958700000041 ] } },
    { "type": "Feature", "properties": { "OBJECTID": 587, "HF_Name": "SORDOO", "HF_Type": "DISPENSARY", "Category": "Other", "Latitude": 26.979999542200002, "Longitude": 64.110000610399993, "Functional": "Functional", "Population": 0, "UC_NAME": "Chitkan", "Tehsil": "Panjgur", "Province": "Balochistan", "District": "Panjgur", "Shape_Leng": 3.9180525843099998 }, "geometry": { "type": "Point", "coordinates": [ 64.111183140000037, 26.976820990000078 ] } },
    { "type": "Feature", "properties": { "OBJECTID": 588, "HF_Name": "WASHBOOD", "HF_Type": "SUB HEALTH CENTRE", "Category": "Other", "Latitude": 27.0, "Longitude": 64.120002746599994, "Functional": "Functional", "Population": 0, "UC_NAME": "Gramkan", "Tehsil": "Panjgur", "Province": "Balochistan", "District": "Panjgur", "Shape_Leng": 3.9180525843099998 }, "geometry": { "type": "Point", "coordinates": [ 64.116917, 26.996713960000079 ] } },
    { "type": "Feature", "properties": { "OBJECTID": 589, "HF_Name": "MALIK ABAD WASHBOOD", "HF_Type": "DISPENSARY", "Category": "Other", "Latitude": 27.0, "Longitude": 64.129997253400006, "Functional": "Functional", "Population": 0, "UC_NAME": "Gramkan", "Tehsil": "Panjgur", "Province": "Balochistan", "District": "Panjgur", "Shape_Leng": 3.9180525843099998 }, "geometry": { "type": "Point", "coordinates": [ 64.125810320000028, 27.001511680000078 ] } },
    { "type": "Feature", "properties": { "OBJECTID": 590, "HF_Name": "PANJGUR (CHITKAN)", "HF_Type": "MATERNAL & CHILD HEALTH CENTRE", "Category": "Other", "Latitude": 26.959999084500001, "Longitude": 64.129997253400006, "Functional": "Functional", "Population": 0, "UC_NAME": "Chitkan", "Tehsil": "Panjgur", "Province": "Balochistan", "District": "Panjgur", "Shape_Leng": 3.9180525843099998 }, "geometry": { "type": "Point", "coordinates": [ 64.132980695000072, 26.965408789000037 ] } },
    { "type": "Feature", "properties": { "OBJECTID": 591, "HF_Name": "PLUN", "HF_Type": "BASIC HEALTH UNIT", "Category": "Other", "Latitude": 27.489999771099999, "Longitude": 64.139999389600007, "Functional": "Functional", "Population": 0, "UC_NAME": "Sohtagan", "Tehsil": "Washuk", "Province": "Balochistan", "District": "Washuk", "Shape_Leng": 5.2752640852499999 }, "geometry": { "type": "Point", "coordinates": [ 64.140198686000076, 27.493123389000061 ] } },
    { "type": "Feature", "properties": { "OBJECTID": 592, "HF_Name": "PESH DUP", "HF_Type": "DISPENSARY", "Category": "Other", "Latitude": 26.760000228900001, "Longitude": 64.139999389600007, "Functional": "Functional", "Population": 0, "UC_NAME": "Keel Kore", "Tehsil": "Gowargo", "Province": "Balochistan", "District": "Panjgur", "Shape_Leng": 3.84193719185 }, "geometry": { "type": "Point", "coordinates": [ 64.144546161000051, 26.762717341000041 ] } },
    { "type": "Feature", "properties": { "OBJECTID": 593, "HF_Name": "GWARGO", "HF_Type": "BASIC HEALTH UNIT", "Category": "Other", "Latitude": 26.780000686600001, "Longitude": 64.260002136200001, "Functional": "Functional", "Population": 0, "UC_NAME": "Keel Kore", "Tehsil": "Gowargo", "Province": "Balochistan", "District": "Panjgur", "Shape_Leng": 3.84193719185 }, "geometry": { "type": "Point", "coordinates": [ 64.264868736000039, 26.778658080000071 ] } },
    { "type": "Feature", "properties": { "OBJECTID": 594, "HF_Name": "KANI", "HF_Type": "BASIC HEALTH UNIT", "Category": "Other", "Latitude": 28.920000076299999, "Longitude": 64.269996643100001, "Functional": "Functional", "Population": 0, "UC_NAME": "Chilgazi", "Tehsil": "Dalbandin", "Province": "Balochistan", "District": "Chagai", "Shape_Leng": 6.1727599125900001 }, "geometry": { "type": "Point", "coordinates": [ 64.267760680000038, 28.915566630000058 ] } },
    { "type": "Feature", "properties": { "OBJECTID": 595, "HF_Name": "POSTI", "HF_Type": "BASIC HEALTH UNIT", "Category": "Other", "Latitude": 29.239999771099999, "Longitude": 64.269996643100001, "Functional": "Functional", "Population": 0, "UC_NAME": "Chilgazi", "Tehsil": "Dalbandin", "Province": "Balochistan", "District": "Chagai", "Shape_Leng": 6.1727599125900001 }, "geometry": { "type": "Point", "coordinates": [ 64.333303861000047, 29.096990886000071 ] } },
    { "type": "Feature", "properties": { "OBJECTID": 596, "HF_Name": "SIGEAK", "HF_Type": "DISPENSARY", "Category": "Other", "Latitude": 26.040000915499999, "Longitude": 64.279998779300001, "Functional": "Functional", "Population": 0, "UC_NAME": "Dandar", "Tehsil": "Kech_(Turbat)", "Province": "Balochistan", "District": "Kech", "Shape_Leng": 6.8566438985299998 }, "geometry": { "type": "Point", "coordinates": [ 64.284825380000029, 26.037017150000054 ] } },
    { "type": "Feature", "properties": { "OBJECTID": 597, "HF_Name": "SAR GASHA", "HF_Type": "BASIC HEALTH UNIT", "Category": "Other", "Latitude": 28.989999771099999, "Longitude": 64.400001525899995, "Functional": "Functional", "Population": 0, "UC_NAME": "Saddar Dilbandin", "Tehsil": "Dalbandin", "Province": "Balochistan", "District": "Chagai", "Shape_Leng": 6.1727599125900001 }, "geometry": { "type": "Point", "coordinates": [ 64.403313420000075, 28.991064360000053 ] } },
    { "type": "Feature", "properties": { "OBJECTID": 598, "HF_Name": "LASHKRAB", "HF_Type": "DISPENSARY", "Category": "Other", "Latitude": 28.8899993896, "Longitude": 64.410003662099996, "Functional": "Functional", "Population": 0, "UC_NAME": "Chilgazi", "Tehsil": "Dalbandin", "Province": "Balochistan", "District": "Chagai", "Shape_Leng": 6.1727599125900001 }, "geometry": { "type": "Point", "coordinates": [ 64.409089529000028, 28.890185297000073 ] } },
    { "type": "Feature", "properties": { "OBJECTID": 599, "HF_Name": "DALBANDIN", "HF_Type": "RURAL HEALTH CENTRE", "Category": "Other", "Latitude": 28.870000839199999, "Longitude": 64.430000305199997, "Functional": "Functional", "Population": 0, "UC_NAME": "Chilgazi", "Tehsil": "Dalbandin", "Province": "Balochistan", "District": "Chagai", "Shape_Leng": 6.1727599125900001 }, "geometry": { "type": "Point", "coordinates": [ 64.415746230000082, 28.883223352000073 ] } },
    { "type": "Feature", "properties": { "OBJECTID": 600, "HF_Name": "DANDDAR", "HF_Type": "SUB HEALTH CENTRE", "Category": "Other", "Latitude": 26.1399993896, "Longitude": 64.440002441399997, "Functional": "Functional", "Population": 0, "UC_NAME": "Dandar", "Tehsil": "Kech_(Turbat)", "Province": "Balochistan", "District": "Kech", "Shape_Leng": 6.8566438985299998 }, "geometry": { "type": "Point", "coordinates": [ 64.442950281000037, 26.14452013600004 ] } },
    { "type": "Feature", "properties": { "OBJECTID": 601, "HF_Name": "SABZAB", "HF_Type": "DISPENSARY", "Category": "Other", "Latitude": 27.090000152599998, "Longitude": 64.470001220699999, "Functional": "Functional", "Population": 0, "UC_NAME": "Washbood", "Tehsil": "Panjgur", "Province": "Balochistan", "District": "Panjgur", "Shape_Leng": 3.9180525843099998 }, "geometry": { "type": "Point", "coordinates": [ 64.464335336000033, 27.090419239000028 ] } },
    { "type": "Feature", "properties": { "OBJECTID": 602, "HF_Name": "SARGWAZ GICHK", "HF_Type": "DISPENSARY", "Category": "Other", "Latitude": 26.879999160800001, "Longitude": 64.620002746599994, "Functional": "Functional", "Population": 0, "UC_NAME": "Gichk", "Tehsil": "Gichk", "Province": "Balochistan", "District": "Panjgur", "Shape_Leng": 2.8956014162599999 }, "geometry": { "type": "Point", "coordinates": [ 64.618999618000032, 26.882649650000076 ] } },
    { "type": "Feature", "properties": { "OBJECTID": 603, "HF_Name": "K.NADIR KHAN", "HF_Type": "DISPENSARY", "Category": "Other", "Latitude": 29.290000915499999, "Longitude": 64.660003662099996, "Functional": "Functional", "Population": 0, "UC_NAME": "Ziarat Balanosh", "Tehsil": "Chagai", "Province": "Balochistan", "District": "Chagai", "Shape_Leng": 2.8196906250499998 }, "geometry": { "type": "Point", "coordinates": [ 64.664123740000036, 29.287907690000054 ] } },
    { "type": "Feature", "properties": { "OBJECTID": 604, "HF_Name": "GISHKOR", "HF_Type": "SUB HEALTH CENTRE", "Category": "Other", "Latitude": 26.209999084500001, "Longitude": 64.669998168899994, "Functional": "Functional", "Population": 0, "UC_NAME": "Tirtej", "Tehsil": "Awaran", "Province": "Balochistan", "District": "Awaran", "Shape_Leng": 2.80703285408 }, "geometry": { "type": "Point", "coordinates": [ 64.665960550000079, 26.205857210000033 ] } },
    { "type": "Feature", "properties": { "OBJECTID": 605, "HF_Name": "NOOKJO", "HF_Type": "DISPENSARY", "Category": "Other", "Latitude": 26.239999771099999, "Longitude": 64.669998168899994, "Functional": "Functional", "Population": 0, "UC_NAME": "Tirtej", "Tehsil": "Awaran", "Province": "Balochistan", "District": "Awaran", "Shape_Leng": 2.80703285408 }, "geometry": { "type": "Point", "coordinates": [ 64.672178540000061, 26.244506720000061 ] } },
    { "type": "Feature", "properties": { "OBJECTID": 606, "HF_Name": "CHAGAI VILLAGE", "HF_Type": "RURAL HEALTH CENTRE", "Category": "Other", "Latitude": 29.290000915499999, "Longitude": 64.699996948199995, "Functional": "Functional", "Population": 0, "UC_NAME": "Ziarat Balanosh", "Tehsil": "Chagai", "Province": "Balochistan", "District": "Chagai", "Shape_Leng": 2.8196906250499998 }, "geometry": { "type": "Point", "coordinates": [ 64.698263631000032, 29.293723391000071 ] } },
    { "type": "Feature", "properties": { "OBJECTID": 607, "HF_Name": "AMINABAD", "HF_Type": "DISPENSARY", "Category": "Other", "Latitude": 29.1399993896, "Longitude": 64.709999084499998, "Functional": "Functional", "Population": 0, "UC_NAME": "Ziarat Balanosh", "Tehsil": "Chagai", "Province": "Balochistan", "District": "Chagai", "Shape_Leng": 2.8196906250499998 }, "geometry": { "type": "Point", "coordinates": [ 64.711976934000063, 29.137147703000039 ] } },
    { "type": "Feature", "properties": { "OBJECTID": 608, "HF_Name": "CHAGAI VILLAGE", "HF_Type": "MATERNAL & CHILD HEALTH CENTRE", "Category": "Other", "Latitude": 29.3199996948, "Longitude": 64.709999084499998, "Functional": "Functional", "Population": 0, "UC_NAME": "Ziarat Balanosh", "Tehsil": "Chagai", "Province": "Balochistan", "District": "Chagai", "Shape_Leng": 2.8196906250499998 }, "geometry": { "type": "Point", "coordinates": [ 64.713597374000074, 29.314361507000058 ] } },
    { "type": "Feature", "properties": { "OBJECTID": 609, "HF_Name": "CHIATER", "HF_Type": "BASIC HEALTH UNIT", "Category": "Other", "Latitude": 29.379999160800001, "Longitude": 64.730003356899999, "Functional": "Functional", "Population": 0, "UC_NAME": "Ziarat Balanosh", "Tehsil": "Chagai", "Province": "Balochistan", "District": "Chagai", "Shape_Leng": 2.8196906250499998 }, "geometry": { "type": "Point", "coordinates": [ 64.734579431000043, 29.375289382000062 ] } },
    { "type": "Feature", "properties": { "OBJECTID": 610, "HF_Name": "MALLAR", "HF_Type": "SUB HEALTH CENTRE", "Category": "Other", "Latitude": 26.159999847400002, "Longitude": 64.75, "Functional": "Functional", "Population": 0, "UC_NAME": "Tirtej", "Tehsil": "Gishekore", "Province": "Balochistan", "District": "Awaran", "Shape_Leng": 4.3245179263100004 }, "geometry": { "type": "Point", "coordinates": [ 64.746239630000048, 26.164714180000033 ] } },
    { "type": "Feature", "properties": { "OBJECTID": 611, "HF_Name": "SHIMSHI", "HF_Type": "BASIC HEALTH UNIT", "Category": "Other", "Latitude": 27.739999771099999, "Longitude": 64.790000915500002, "Functional": "Functional", "Population": 0, "UC_NAME": "Soldan", "Tehsil": "Washuk", "Province": "Balochistan", "District": "Washuk", "Shape_Leng": 5.2752640852499999 }, "geometry": { "type": "Point", "coordinates": [ 64.793589817000054, 27.741047808000076 ] } },
    { "type": "Feature", "properties": { "OBJECTID": 612, "HF_Name": "WASHUK", "HF_Type": "DISPENSARY", "Category": "Other", "Latitude": 27.729999542200002, "Longitude": 64.790000915500002, "Functional": "Functional", "Population": 0, "UC_NAME": "Soldan", "Tehsil": "Washuk", "Province": "Balochistan", "District": "Washuk", "Shape_Leng": 5.2752640852499999 }, "geometry": { "type": "Point", "coordinates": [ 64.794509097000059, 27.729118173000074 ] } },
    { "type": "Feature", "properties": { "OBJECTID": 613, "HF_Name": "JANGIAN", "HF_Type": "DISPENSARY", "Category": "Other", "Latitude": 28.4300003052, "Longitude": 64.819999694800003, "Functional": "Functional", "Population": 0, "UC_NAME": "Tohmulk", "Tehsil": "Shaogari", "Province": "Balochistan", "District": "Washuk", "Shape_Leng": 4.1301497599700001 }, "geometry": { "type": "Point", "coordinates": [ 64.817721260000042, 28.433720020000067 ] } },
    { "type": "Feature", "properties": { "OBJECTID": 614, "HF_Name": "BAZDAD", "HF_Type": "BASIC HEALTH UNIT", "Category": "Other", "Latitude": 26.340000152599998, "Longitude": 64.959999084499998, "Functional": "Functional", "Population": 0, "UC_NAME": "Tirtej", "Tehsil": "Awaran", "Province": "Balochistan", "District": "Awaran", "Shape_Leng": 2.80703285408 }, "geometry": { "type": "Point", "coordinates": [ 64.962993150000045, 26.34032467000003 ] } },
    { "type": "Feature", "properties": { "OBJECTID": 615, "HF_Name": "GICHK", "HF_Type": "DISPENSARY", "Category": "Other", "Latitude": 26.9500007629, "Longitude": 64.980003356899999, "Functional": "Functional", "Population": 0, "UC_NAME": "Gichk", "Tehsil": "Gichk", "Province": "Balochistan", "District": "Panjgur", "Shape_Leng": 2.8956014162599999 }, "geometry": { "type": "Point", "coordinates": [ 64.977441317000057, 26.944375679000075 ] } },
    { "type": "Feature", "properties": { "OBJECTID": 616, "HF_Name": "JAT", "HF_Type": "BASIC HEALTH UNIT", "Category": "Other", "Latitude": 27.370000839199999, "Longitude": 65.050003051800005, "Functional": "Functional", "Population": 0, "UC_NAME": "Shingir", "Tehsil": "Nag", "Province": "Balochistan", "District": "Washuk", "Shape_Leng": 4.01514289084 }, "geometry": { "type": "Point", "coordinates": [ 65.042927955000039, 27.369102232000046 ] } },
    { "type": "Feature", "properties": { "OBJECTID": 617, "HF_Name": "SHIMSHAN", "HF_Type": "BASIC HEALTH UNIT", "Category": "Other", "Latitude": 28.3199996948, "Longitude": 65.099998474100005, "Functional": "Functional", "Population": 0, "UC_NAME": "Jamak", "Tehsil": "Shaogari", "Province": "Balochistan", "District": "Washuk", "Shape_Leng": 4.1301497599700001 }, "geometry": { "type": "Point", "coordinates": [ 65.099997700000074, 28.324643640000033 ] } },
    { "type": "Feature", "properties": { "OBJECTID": 618, "HF_Name": "KOHAK", "HF_Type": "BASIC HEALTH UNIT", "Category": "Other", "Latitude": 28.5499992371, "Longitude": 65.099998474100005, "Functional": "Functional", "Population": 0, "UC_NAME": "Tohmulk", "Tehsil": "Tomulk", "Province": "Balochistan", "District": "Kharan", "Shape_Leng": 1.76287346835 }, "geometry": { "type": "Point", "coordinates": [ 65.09757249300003, 28.552979313000037 ] } },
    { "type": "Feature", "properties": { "OBJECTID": 619, "HF_Name": "DURASKI", "HF_Type": "DISPENSARY", "Category": "Other", "Latitude": 26.540000915499999, "Longitude": 65.110000610399993, "Functional": "Functional", "Population": 0, "UC_NAME": "Shandi", "Tehsil": "Awaran", "Province": "Balochistan", "District": "Awaran", "Shape_Leng": 2.80703285408 }, "geometry": { "type": "Point", "coordinates": [ 65.107955476000029, 26.540232623000065 ] } },
    { "type": "Feature", "properties": { "OBJECTID": 620, "HF_Name": "NAG", "HF_Type": "DISPENSARY", "Category": "Other", "Latitude": 27.409999847400002, "Longitude": 65.139999389600007, "Functional": "Functional", "Population": 0, "UC_NAME": "Nag", "Tehsil": "Nag", "Province": "Balochistan", "District": "Washuk", "Shape_Leng": 4.01514289084 }, "geometry": { "type": "Point", "coordinates": [ 65.134853797000062, 27.414781535000031 ] } },
    { "type": "Feature", "properties": { "OBJECTID": 621, "HF_Name": "SORGAZO", "HF_Type": "DISPENSARY", "Category": "Other", "Latitude": 28.260000228900001, "Longitude": 65.139999389600007, "Functional": "Functional", "Population": 0, "UC_NAME": "Joda Kalat", "Tehsil": "Shaogari", "Province": "Balochistan", "District": "Washuk", "Shape_Leng": 4.1301497599700001 }, "geometry": { "type": "Point", "coordinates": [ 65.141645050000079, 28.261181020000038 ] } },
    { "type": "Feature", "properties": { "OBJECTID": 622, "HF_Name": "RRI", "HF_Type": "DISPENSARY", "Category": "Other", "Latitude": 28.670000076299999, "Longitude": 65.150001525899995, "Functional": "Functional", "Population": 0, "UC_NAME": "Tohmulk", "Tehsil": "Tomulk", "Province": "Balochistan", "District": "Kharan", "Shape_Leng": 1.76287346835 }, "geometry": { "type": "Point", "coordinates": [ 65.155920128000048, 28.672774815000025 ] } },
    { "type": "Feature", "properties": { "OBJECTID": 623, "HF_Name": "SALAM", "HF_Type": "BASIC HEALTH UNIT", "Category": "Other", "Latitude": 28.2999992371, "Longitude": 65.150001525899995, "Functional": "Functional", "Population": 0, "UC_NAME": "Jamak", "Tehsil": "Shaogari", "Province": "Balochistan", "District": "Washuk", "Shape_Leng": 4.1301497599700001 }, "geometry": { "type": "Point", "coordinates": [ 65.152883220000035, 28.300845160000051 ] } },
    { "type": "Feature", "properties": { "OBJECTID": 624, "HF_Name": "AWARAN", "HF_Type": "LEPROSY CENTRE", "Category": "Other", "Latitude": 26.399999618500001, "Longitude": 65.150001525899995, "Functional": "Functional", "Population": 0, "UC_NAME": "Awaran", "Tehsil": "Awaran", "Province": "Balochistan", "District": "Awaran", "Shape_Leng": 2.80703285408 }, "geometry": { "type": "Point", "coordinates": [ 65.154659460000062, 26.396520030000033 ] } },
    { "type": "Feature", "properties": { "OBJECTID": 625, "HF_Name": "GARUK", "HF_Type": "DISPENSARY", "Category": "Other", "Latitude": 28.760000228900001, "Longitude": 65.160003662099996, "Functional": "Functional", "Population": 0, "UC_NAME": "Tohmulk", "Tehsil": "Tomulk", "Province": "Balochistan", "District": "Kharan", "Shape_Leng": 1.76287346835 }, "geometry": { "type": "Point", "coordinates": [ 65.161575282000058, 28.763477721000072 ] } },
    { "type": "Feature", "properties": { "OBJECTID": 626, "HF_Name": "BEDI", "HF_Type": "DISPENSARY", "Category": "Other", "Latitude": 28.530000686600001, "Longitude": 65.180000305199997, "Functional": "Functional", "Population": 0, "UC_NAME": "Tohmulk", "Tehsil": "Tomulk", "Province": "Balochistan", "District": "Kharan", "Shape_Leng": 1.76287346835 }, "geometry": { "type": "Point", "coordinates": [ 65.179204727000069, 28.525604242000043 ] } },
    { "type": "Feature", "properties": { "OBJECTID": 627, "HF_Name": "AWARAN", "HF_Type": "RURAL HEALTH CENTRE", "Category": "Other", "Latitude": 26.4300003052, "Longitude": 65.190002441399997, "Functional": "Functional", "Population": 0, "UC_NAME": "Awaran", "Tehsil": "Awaran", "Province": "Balochistan", "District": "Awaran", "Shape_Leng": 2.80703285408 }, "geometry": { "type": "Point", "coordinates": [ 65.191323375000081, 26.426790872000026 ] } },
    { "type": "Feature", "properties": { "OBJECTID": 628, "HF_Name": "SARAGAI", "HF_Type": "BASIC HEALTH UNIT", "Category": "Other", "Latitude": 28.579999923700001, "Longitude": 65.25, "Functional": "Functional", "Population": 0, "UC_NAME": "Tohmulk", "Tehsil": "Tomulk", "Province": "Balochistan", "District": "Kharan", "Shape_Leng": 1.76287346835 }, "geometry": { "type": "Point", "coordinates": [ 65.253706401000045, 28.584927205000042 ] } },
    { "type": "Feature", "properties": { "OBJECTID": 629, "HF_Name": "DELLY", "HF_Type": "BASIC HEALTH UNIT", "Category": "Other", "Latitude": 28.3600006104, "Longitude": 65.279998779300001, "Functional": "Functional", "Population": 0, "UC_NAME": "Jamak", "Tehsil": "Shaogari", "Province": "Balochistan", "District": "Washuk", "Shape_Leng": 4.1301497599700001 }, "geometry": { "type": "Point", "coordinates": [ 65.272946955000066, 28.355658198000071 ] } },
    { "type": "Feature", "properties": { "OBJECTID": 630, "HF_Name": "ZOORABAD", "HF_Type": "DISPENSARY", "Category": "Other", "Latitude": 28.4500007629, "Longitude": 65.300003051800005, "Functional": "Functional", "Population": 0, "UC_NAME": "Jamak", "Tehsil": "Tomulk", "Province": "Balochistan", "District": "Kharan", "Shape_Leng": 1.76287346835 }, "geometry": { "type": "Point", "coordinates": [ 65.296996260000071, 28.450907820000054 ] } },
    { "type": "Feature", "properties": { "OBJECTID": 631, "HF_Name": "KANRAK (HAJI DAD KH*", "HF_Type": "DISPENSARY", "Category": "Other", "Latitude": 29.020000457799998, "Longitude": 65.300003051800005, "Functional": "Functional", "Population": 0, "UC_NAME": "Padag", "Tehsil": "Dalbandin", "Province": "Balochistan", "District": "Chagai", "Shape_Leng": 6.1727599125900001 }, "geometry": { "type": "Point", "coordinates": [ 65.298989491000043, 29.018902199000024 ] } },
    { "type": "Feature", "properties": { "OBJECTID": 632, "HF_Name": "PADAG", "HF_Type": "BASIC HEALTH UNIT", "Category": "Other", "Latitude": 29.0, "Longitude": 65.300003051800005, "Functional": "Functional", "Population": 0, "UC_NAME": "Padag", "Tehsil": "Dalbandin", "Province": "Balochistan", "District": "Chagai", "Shape_Leng": 6.1727599125900001 }, "geometry": { "type": "Point", "coordinates": [ 65.309792427000048, 29.006257669000036 ] } },
    { "type": "Feature", "properties": { "OBJECTID": 633, "HF_Name": "JAMAK", "HF_Type": "BASIC HEALTH UNIT", "Category": "Other", "Latitude": 28.4300003052, "Longitude": 65.300003051800005, "Functional": "Functional", "Population": 0, "UC_NAME": "Jamak", "Tehsil": "Tomulk", "Province": "Balochistan", "District": "Kharan", "Shape_Leng": 1.76287346835 }, "geometry": { "type": "Point", "coordinates": [ 65.300330759000076, 28.431041265000033 ] } },
    { "type": "Feature", "properties": { "OBJECTID": 634, "HF_Name": "BERONT", "HF_Type": "BASIC HEALTH UNIT", "Category": "Other", "Latitude": 27.260000228900001, "Longitude": 65.319999694800003, "Functional": "Functional", "Population": 0, "UC_NAME": "Shingir", "Tehsil": "Nag", "Province": "Balochistan", "District": "Washuk", "Shape_Leng": 4.01514289084 }, "geometry": { "type": "Point", "coordinates": [ 65.316581047000057, 27.257553863000055 ] } },
    { "type": "Feature", "properties": { "OBJECTID": 635, "HF_Name": "BUDDO", "HF_Type": "DISPENSARY", "Category": "Other", "Latitude": 28.489999771099999, "Longitude": 65.330001831100006, "Functional": "Functional", "Population": 0, "UC_NAME": "Jamak", "Tehsil": "Tomulk", "Province": "Balochistan", "District": "Kharan", "Shape_Leng": 1.76287346835 }, "geometry": { "type": "Point", "coordinates": [ 65.328066500000034, 28.485944470000049 ] } },
    { "type": "Feature", "properties": { "OBJECTID": 636, "HF_Name": "MUNGLEE", "HF_Type": "DISPENSARY", "Category": "Other", "Latitude": 26.739999771099999, "Longitude": 65.349998474100005, "Functional": "Functional", "Population": 0, "UC_NAME": "Parwar", "Tehsil": "Mashkai", "Province": "Balochistan", "District": "Awaran", "Shape_Leng": 2.7184045889099999 }, "geometry": { "type": "Point", "coordinates": [ 65.35498479000006, 26.733431640000049 ] } },
    { "type": "Feature", "properties": { "OBJECTID": 637, "HF_Name": "ZARO CHAH", "HF_Type": "BASIC HEALTH UNIT", "Category": "Other", "Latitude": 29.489999771099999, "Longitude": 65.349998474100005, "Functional": "Functional", "Population": 0, "UC_NAME": "Dak", "Tehsil": "Nushki", "Province": "Balochistan", "District": "Nushki", "Shape_Leng": 3.3081246042700001 }, "geometry": { "type": "Point", "coordinates": [ 65.345649217000073, 29.495648689000063 ] } },
    { "type": "Feature", "properties": { "OBJECTID": 638, "HF_Name": "PURPATE", "HF_Type": "DISPENSARY", "Category": "Other", "Latitude": 28.420000076299999, "Longitude": 65.370002746599994, "Functional": "Functional", "Population": 0, "UC_NAME": "Joda Kalat", "Tehsil": "Sar_Kharan", "Province": "Balochistan", "District": "Kharan", "Shape_Leng": 2.26984060809 }, "geometry": { "type": "Point", "coordinates": [ 65.367407025000034, 28.416271406000078 ] } },
    { "type": "Feature", "properties": { "OBJECTID": 639, "HF_Name": "KHARAN", "HF_Type": "DISPENSARY", "Category": "Other", "Latitude": 28.579999923700001, "Longitude": 65.389999389600007, "Functional": "Functional", "Population": 0, "UC_NAME": "North Urban", "Tehsil": "Tomulk", "Province": "Balochistan", "District": "Kharan", "Shape_Leng": 1.76287346835 }, "geometry": { "type": "Point", "coordinates": [ 65.39445558400007, 28.577361621000023 ] } },
    { "type": "Feature", "properties": { "OBJECTID": 640, "HF_Name": "KHARAN", "HF_Type": "MATERNAL & CHILD HEALTH CENTRE", "Category": "Other", "Latitude": 28.590000152599998, "Longitude": 65.410003662099996, "Functional": "Functional", "Population": 0, "UC_NAME": "North Urban", "Tehsil": "Tomulk", "Province": "Balochistan", "District": "Kharan", "Shape_Leng": 1.76287346835 }, "geometry": { "type": "Point", "coordinates": [ 65.408716910000066, 28.587088020000067 ] } },
    { "type": "Feature", "properties": { "OBJECTID": 641, "HF_Name": "KOOTAN", "HF_Type": "DISPENSARY", "Category": "Other", "Latitude": 28.409999847400002, "Longitude": 65.410003662099996, "Functional": "Functional", "Population": 0, "UC_NAME": "Joda Kalat", "Tehsil": "Sar_Kharan", "Province": "Balochistan", "District": "Kharan", "Shape_Leng": 2.26984060809 }, "geometry": { "type": "Point", "coordinates": [ 65.408827392000035, 28.406672092000065 ] } },
    { "type": "Feature", "properties": { "OBJECTID": 642, "HF_Name": "KHARAN", "HF_Type": "DISPENSARY", "Category": "Other", "Latitude": 28.559999465899999, "Longitude": 65.430000305199997, "Functional": "Functional", "Population": 0, "UC_NAME": "Joda Kalat", "Tehsil": "Kharan", "Province": "Balochistan", "District": "Kharan", "Shape_Leng": 3.5467286318600002 }, "geometry": { "type": "Point", "coordinates": [ 65.430532190000065, 28.555356710000069 ] } },
    { "type": "Feature", "properties": { "OBJECTID": 643, "HF_Name": "NOROZABAD", "HF_Type": "HEALTH AUX. UNIT", "Category": "Other", "Latitude": 28.5499992371, "Longitude": 65.480003356899999, "Functional": "Functional", "Population": 0, "UC_NAME": "Joda Kalat", "Tehsil": "Kharan", "Province": "Balochistan", "District": "Kharan", "Shape_Leng": 3.5467286318600002 }, "geometry": { "type": "Point", "coordinates": [ 65.474687929000083, 28.548717158000045 ] } },
    { "type": "Feature", "properties": { "OBJECTID": 644, "HF_Name": "HURRAO", "HF_Type": "BASIC HEALTH UNIT", "Category": "Other", "Latitude": 28.489999771099999, "Longitude": 65.480003356899999, "Functional": "Functional", "Population": 0, "UC_NAME": "Joda Kalat", "Tehsil": "Kharan", "Province": "Balochistan", "District": "Kharan", "Shape_Leng": 3.5467286318600002 }, "geometry": { "type": "Point", "coordinates": [ 65.480134710000073, 28.489985576000038 ] } },
    { "type": "Feature", "properties": { "OBJECTID": 645, "HF_Name": "GOZGAI", "HF_Type": "DISPENSARY", "Category": "Other", "Latitude": 28.510000228900001, "Longitude": 65.489997863799999, "Functional": "Functional", "Population": 0, "UC_NAME": "Joda Kalat", "Tehsil": "Kharan", "Province": "Balochistan", "District": "Kharan", "Shape_Leng": 3.5467286318600002 }, "geometry": { "type": "Point", "coordinates": [ 65.490714998000044, 28.508149460000027 ] } },
    { "type": "Feature", "properties": { "OBJECTID": 646, "HF_Name": "MISKAN", "HF_Type": "DISPENSARY", "Category": "Other", "Latitude": 28.479999542200002, "Longitude": 65.489997863799999, "Functional": "Functional", "Population": 0, "UC_NAME": "Joda Kalat", "Tehsil": "Sar_Kharan", "Province": "Balochistan", "District": "Kharan", "Shape_Leng": 2.26984060809 }, "geometry": { "type": "Point", "coordinates": [ 65.493345027000032, 28.483296182000061 ] } },
    { "type": "Feature", "properties": { "OBJECTID": 647, "HF_Name": "JODA", "HF_Type": "SUB HEALTH CENTRE", "Category": "Other", "Latitude": 28.459999084500001, "Longitude": 65.5, "Functional": "Functional", "Population": 0, "UC_NAME": "Joda Kalat", "Tehsil": "Sar_Kharan", "Province": "Balochistan", "District": "Kharan", "Shape_Leng": 2.26984060809 }, "geometry": { "type": "Point", "coordinates": [ 65.50266343800007, 28.45625368900005 ] } },
    { "type": "Feature", "properties": { "OBJECTID": 648, "HF_Name": "SIBI", "HF_Type": "DISPENSARY", "Category": "Other", "Latitude": 28.530000686600001, "Longitude": 65.519996643100001, "Functional": "Functional", "Population": 0, "UC_NAME": "Joda Kalat", "Tehsil": "Kharan", "Province": "Balochistan", "District": "Kharan", "Shape_Leng": 3.5467286318600002 }, "geometry": { "type": "Point", "coordinates": [ 65.510653799000067, 28.527254850000077 ] } },
    { "type": "Feature", "properties": { "OBJECTID": 649, "HF_Name": "MCHHI", "HF_Type": "HEALTH AUX. UNIT", "Category": "Other", "Latitude": 28.590000152599998, "Longitude": 65.519996643100001, "Functional": "Functional", "Population": 0, "UC_NAME": "Sarawan", "Tehsil": "Kharan", "Province": "Balochistan", "District": "Kharan", "Shape_Leng": 3.5467286318600002 }, "geometry": { "type": "Point", "coordinates": [ 65.524833325000031, 28.584394584000052 ] } },
    { "type": "Feature", "properties": { "OBJECTID": 650, "HF_Name": "DAMAG", "HF_Type": "BASIC HEALTH UNIT", "Category": "Other", "Latitude": 28.059999465899999, "Longitude": 65.529998779300001, "Functional": "Functional", "Population": 0, "UC_NAME": "Besima", "Tehsil": "Basima", "Province": "Balochistan", "District": "Washuk", "Shape_Leng": 2.2366681967100002 }, "geometry": { "type": "Point", "coordinates": [ 65.525254033000067, 28.055169956000043 ] } },
    { "type": "Feature", "properties": { "OBJECTID": 651, "HF_Name": "SARAWAN", "HF_Type": "SUB HEALTH CENTRE", "Category": "Other", "Latitude": 28.5699996948, "Longitude": 65.529998779300001, "Functional": "Functional", "Population": 0, "UC_NAME": "Sarawan", "Tehsil": "Kharan", "Province": "Balochistan", "District": "Kharan", "Shape_Leng": 3.5467286318600002 }, "geometry": { "type": "Point", "coordinates": [ 65.53199690200006, 28.57378114100004 ] } },
    { "type": "Feature", "properties": { "OBJECTID": 652, "HF_Name": "PERWAR", "HF_Type": "DISPENSARY", "Category": "Other", "Latitude": 27.020000457799998, "Longitude": 65.529998779300001, "Functional": "Functional", "Population": 0, "UC_NAME": "Parwar", "Tehsil": "Mashkai", "Province": "Balochistan", "District": "Awaran", "Shape_Leng": 2.7184045889099999 }, "geometry": { "type": "Point", "coordinates": [ 65.53533499100007, 27.020504380000034 ] } },
    { "type": "Feature", "properties": { "OBJECTID": 653, "HF_Name": "ISSA CHAH", "HF_Type": "DISPENSARY", "Category": "Other", "Latitude": 29.590000152599998, "Longitude": 65.540000915500002, "Functional": "Functional", "Population": 0, "UC_NAME": "Dak", "Tehsil": "Nushki", "Province": "Balochistan", "District": "Nushki", "Shape_Leng": 3.3081246042700001 }, "geometry": { "type": "Point", "coordinates": [ 65.539073058000042, 29.590713866000044 ] } },
    { "type": "Feature", "properties": { "OBJECTID": 654, "HF_Name": "UL-MARGE", "HF_Type": "BASIC HEALTH UNIT", "Category": "Other", "Latitude": 28.559999465899999, "Longitude": 65.540000915500002, "Functional": "Functional", "Population": 0, "UC_NAME": "Sarawan", "Tehsil": "Kharan", "Province": "Balochistan", "District": "Kharan", "Shape_Leng": 3.5467286318600002 }, "geometry": { "type": "Point", "coordinates": [ 65.540269630000068, 28.556678850000026 ] } },
    { "type": "Feature", "properties": { "OBJECTID": 655, "HF_Name": "MASHKEY", "HF_Type": "RURAL HEALTH CENTRE", "Category": "Other", "Latitude": 27.100000381499999, "Longitude": 65.540000915500002, "Functional": "Functional", "Population": 0, "UC_NAME": "Nokjo", "Tehsil": "Mashkai", "Province": "Balochistan", "District": "Awaran", "Shape_Leng": 2.7184045889099999 }, "geometry": { "type": "Point", "coordinates": [ 65.544051835000062, 27.102733306000061 ] } },
    { "type": "Feature", "properties": { "OBJECTID": 656, "HF_Name": "KILLI LANDI MEHMOOD*", "HF_Type": "DISPENSARY", "Category": "Other", "Latitude": 29.440000534100001, "Longitude": 65.569999694800003, "Functional": "Functional", "Population": 0, "UC_NAME": "Anam Bostan", "Tehsil": "Nushki", "Province": "Balochistan", "District": "Nushki", "Shape_Leng": 3.3081246042700001 }, "geometry": { "type": "Point", "coordinates": [ 65.574420840000073, 29.436091490000024 ] } },
    { "type": "Feature", "properties": { "OBJECTID": 657, "HF_Name": "METHGO", "HF_Type": "BASIC HEALTH UNIT", "Category": "Other", "Latitude": 26.350000381499999, "Longitude": 65.580001831100006, "Functional": "Functional", "Population": 0, "UC_NAME": "Camp Jhao", "Tehsil": "Jhal_Jhao", "Province": "Balochistan", "District": "Awaran", "Shape_Leng": 6.0360130433599997 }, "geometry": { "type": "Point", "coordinates": [ 65.575731233000056, 26.350180864000038 ] } },
    { "type": "Feature", "properties": { "OBJECTID": 658, "HF_Name": "NOROZ", "HF_Type": "DISPENSARY", "Category": "Other", "Latitude": 28.770000457799998, "Longitude": 65.610000610399993, "Functional": "Functional", "Population": 0, "UC_NAME": "Sarawan", "Tehsil": "Kharan", "Province": "Balochistan", "District": "Kharan", "Shape_Leng": 3.5467286318600002 }, "geometry": { "type": "Point", "coordinates": [ 65.61368965500003, 28.782904034000069 ] } },
    { "type": "Feature", "properties": { "OBJECTID": 659, "HF_Name": "CAMP JHAO", "HF_Type": "DISPENSARY", "Category": "Other", "Latitude": 26.3600006104, "Longitude": 65.620002746599994, "Functional": "Functional", "Population": 0, "UC_NAME": "Camp Jhao", "Tehsil": "Jhal_Jhao", "Province": "Balochistan", "District": "Awaran", "Shape_Leng": 6.0360130433599997 }, "geometry": { "type": "Point", "coordinates": [ 65.619554385000072, 26.362512553000045 ] } },