{
  "type": "FeatureCollection",
  "name": "healthfacilities_punjab",
    "features": [
    { "type": "Feature", "properties": { "OBJECTID": 2547, "HF_Name": "GUDDU BARRAGE, KASH*", "HF_Type": "DISPENSARY", "Category": "Other", "Latitude": 28.440000534100001, "Longitude": 69.620002746599994, "Functional": "Functional", "Population": 0, "UC_NAME": "Tribal Area", "Tehsil": "Rajanpur", "Province": "Punjab", "District": "Rajanpur", "Shape_Leng": 4.6921439940200003 }, "geometry": { "type": "Point", "coordinates": [ 69.615265310000041, 28.437489940000034 ] } },
    { "type": "Feature", "properties": { "OBJECTID": 2548, "HF_Name": "WAPDAHOSPITAL, GUDDU", "HF_Type": "HOSPITAL", "Category": "Other", "Latitude": 28.4300003052, "Longitude": 69.680000305199997, "Functional": "Functional", "Population": 0, "UC_NAME": "Tribal Area", "Tehsil": "Rajanpur", "Province": "Punjab", "District": "Rajanpur", "Shape_Leng": 4.6921439940200003 }, "geometry": { "type": "Point", "coordinates": [ 69.683672860000058, 28.432904380000025 ] } },
    { "type": "Feature", "properties": { "OBJECTID": 2549, "HF_Name": "SHAH WALI", "HF_Type": "BASIC HEALTH UNIT", "Category": "Other", "Latitude": 28.489999771099999, "Longitude": 69.730003356899999, "Functional": "Functional", "Population": 0, "UC_NAME": "Shahwali", "Tehsil": "Rojhan", "Province": "Punjab", "District": "Rajanpur", "Shape_Leng": 2.8269705862699999 }, "geometry": { "type": "Point", "coordinates": [ 69.73342600400008, 28.500066452000056 ] } },
    { "type": "Feature", "properties": { "OBJECTID": 2550, "HF_Name": "HASO DAHO", "HF_Type": "BASIC HEALTH UNIT", "Category": "Other", "Latitude": 28.25, "Longitude": 69.730003356899999, "Functional": "Functional", "Population": 0, "UC_NAME": "Ahmadpur-2", "Tehsil": "Sadiqabad", "Province": "Punjab", "District": "Rahim_Yar_Khan", "Shape_Leng": 3.2740367528299998 }, "geometry": { "type": "Point", "coordinates": [ 69.731426290000059, 28.253586340000027 ] } },
    { "type": "Feature", "properties": { "OBJECTID": 2551, "HF_Name": "SHAH WALI", "HF_Type": "DISPENSARY", "Category": "Other", "Latitude": 28.489999771099999, "Longitude": 69.75, "Functional": "Functional", "Population": 0, "UC_NAME": "Shahwali", "Tehsil": "Rojhan", "Province": "Punjab", "District": "Rajanpur", "Shape_Leng": 2.8269705862699999 }, "geometry": { "type": "Point", "coordinates": [ 69.739507785000058, 28.496920168000031 ] } },
    { "type": "Feature", "properties": { "OBJECTID": 2552, "HF_Name": "NAWAZ ABAD", "HF_Type": "RURAL HEALTH CENTRE", "Category": "Other", "Latitude": 28.340000152599998, "Longitude": 69.849998474100005, "Functional": "Functional", "Population": 0, "UC_NAME": "Nawaz Abad", "Tehsil": "Sadiqabad", "Province": "Punjab", "District": "Rahim_Yar_Khan", "Shape_Leng": 3.2740367528299998 }, "geometry": { "type": "Point", "coordinates": [ 69.843176217000064, 28.344770201000074 ] } },
    { "type": "Feature", "properties": { "OBJECTID": 2553, "HF_Name": "MUBARIK BHARA", "HF_Type": "SUB HEALTH CENTRE", "Category": "Other", "Latitude": 28.309999465899999, "Longitude": 69.860000610399993, "Functional": "Functional", "Population": 0, "UC_NAME": "Kot Sanja Khan", "Tehsil": "Sadiqabad", "Province": "Punjab", "District": "Rahim_Yar_Khan", "Shape_Leng": 3.2740367528299998 }, "geometry": { "type": "Point", "coordinates": [ 69.857905637000044, 28.313770443000067 ] } },
    { "type": "Feature", "properties": { "OBJECTID": 2554, "HF_Name": "KOT SANJAR KHAN", "HF_Type": "BASIC HEALTH UNIT", "Category": "Other", "Latitude": 28.270000457799998, "Longitude": 69.879997253400006, "Functional": "Functional", "Population": 0, "UC_NAME": "Kot Sanja Khan", "Tehsil": "Sadiqabad", "Province": "Punjab", "District": "Rahim_Yar_Khan", "Shape_Leng": 3.2740367528299998 }, "geometry": { "type": "Point", "coordinates": [ 69.87796948600004, 28.268621741000061 ] } },
    { "type": "Feature", "properties": { "OBJECTID": 2555, "HF_Name": "QADIR BUKSH", "HF_Type": "SUB HEALTH CENTRE", "Category": "Other", "Latitude": 28.2999992371, "Longitude": 69.889999389600007, "Functional": "Functional", "Population": 0, "UC_NAME": "Kot Sanja Khan", "Tehsil": "Sadiqabad", "Province": "Punjab", "District": "Rahim_Yar_Khan", "Shape_Leng": 3.2740367528299998 }, "geometry": { "type": "Point", "coordinates": [ 69.893568787000049, 28.296675429000061 ] } },
    { "type": "Feature", "properties": { "OBJECTID": 2556, "HF_Name": "BASTI NOOR MUHAMMAD*", "HF_Type": "SUB HEALTH CENTRE", "Category": "Other", "Latitude": 28.290000915499999, "Longitude": 69.900001525899995, "Functional": "Functional", "Population": 0, "UC_NAME": "Sanjapur", "Tehsil": "Sadiqabad", "Province": "Punjab", "District": "Rahim_Yar_Khan", "Shape_Leng": 3.2740367528299998 }, "geometry": { "type": "Point", "coordinates": [ 69.89425846000006, 28.29293382000003 ] } },
    { "type": "Feature", "properties": { "OBJECTID": 2557, "HF_Name": "KOT SABZAL", "HF_Type": "BASIC HEALTH UNIT", "Category": "Other", "Latitude": 28.219999313399999, "Longitude": 69.900001525899995, "Functional": "Functional", "Population": 0, "UC_NAME": "Dhandi", "Tehsil": "Sadiqabad", "Province": "Punjab", "District": "Rahim_Yar_Khan", "Shape_Leng": 3.2740367528299998 }, "geometry": { "type": "Point", "coordinates": [ 69.895206289000043, 28.215962976000071 ] } },
    { "type": "Feature", "properties": { "OBJECTID": 2558, "HF_Name": "BHONG", "HF_Type": "BASIC HEALTH UNIT", "Category": "Other", "Latitude": 28.420000076299999, "Longitude": 69.919998168899994, "Functional": "Functional", "Population": 0, "UC_NAME": "17", "Tehsil": "Sadiqabad", "Province": "Punjab", "District": "Rahim_Yar_Khan", "Shape_Leng": 3.2740367528299998 }, "geometry": { "type": "Point", "coordinates": [ 69.917809542000043, 28.409399114000053 ] } },
    { "type": "Feature", "properties": { "OBJECTID": 2559, "HF_Name": "ROJHAN", "HF_Type": "MATERNAL & CHILD HEALTH CENTRE", "Category": "Other", "Latitude": 28.659999847400002, "Longitude": 69.930000305199997, "Functional": "Functional", "Population": 0, "UC_NAME": "Rojhan", "Tehsil": "Rojhan", "Province": "Punjab", "District": "Rajanpur", "Shape_Leng": 2.8269705862699999 }, "geometry": { "type": "Point", "coordinates": [ 69.930235534000076, 28.661983538000072 ] } },
    { "type": "Feature", "properties": { "OBJECTID": 2560, "HF_Name": "SOON MIANI", "HF_Type": "BASIC HEALTH UNIT", "Category": "Other", "Latitude": 28.459999084500001, "Longitude": 69.940002441399997, "Functional": "Functional", "Population": 0, "UC_NAME": "Soghiani", "Tehsil": "Rojhan", "Province": "Punjab", "District": "Rajanpur", "Shape_Leng": 2.8269705862699999 }, "geometry": { "type": "Point", "coordinates": [ 69.940950980000082, 28.466329449000057 ] } },
    { "type": "Feature", "properties": { "OBJECTID": 2561, "HF_Name": "ROJHAN", "HF_Type": "DISPENSARY", "Category": "Other", "Latitude": 28.6800003052, "Longitude": 69.970001220699999, "Functional": "Functional", "Population": 0, "UC_NAME": "Rojhan", "Tehsil": "Rojhan", "Province": "Punjab", "District": "Rajanpur", "Shape_Leng": 2.8269705862699999 }, "geometry": { "type": "Point", "coordinates": [ 69.967869084000029, 28.678596866000078 ] } },
    { "type": "Feature", "properties": { "OBJECTID": 2562, "HF_Name": "ROJHAN", "HF_Type": "DISPENSARY", "Category": "Other", "Latitude": 28.690000534100001, "Longitude": 69.970001220699999, "Functional": "Functional", "Population": 0, "UC_NAME": "Rojhan", "Tehsil": "Rojhan", "Province": "Punjab", "District": "Rajanpur", "Shape_Leng": 2.8269705862699999 }, "geometry": { "type": "Point", "coordinates": [ 69.976198756000031, 28.686455313000067 ] } },
    { "type": "Feature", "properties": { "OBJECTID": 2563, "HF_Name": "QADIRPUR", "HF_Type": "BASIC HEALTH UNIT", "Category": "Other", "Latitude": 28.399999618500001, "Longitude": 69.980003356899999, "Functional": "Functional", "Population": 0, "UC_NAME": "Drigra", "Tehsil": "Sadiqabad", "Province": "Punjab", "District": "Rahim_Yar_Khan", "Shape_Leng": 3.2740367528299998 }, "geometry": { "type": "Point", "coordinates": [ 69.974959420000062, 28.404928589000065 ] } },
    { "type": "Feature", "properties": { "OBJECTID": 2564, "HF_Name": "BAWATA", "HF_Type": "BASIC HEALTH UNIT", "Category": "Other", "Latitude": 30.010000228900001, "Longitude": 69.980003356899999, "Functional": "Functional", "Population": 0, "UC_NAME": "Tuman Leghri", "Tehsil": "DG_Khan", "Province": "Punjab", "District": "Dera_Ghazi_Khan", "Shape_Leng": 3.9630187889299999 }, "geometry": { "type": "Point", "coordinates": [ 69.978526693000049, 30.005342406000068 ] } },
    { "type": "Feature", "properties": { "OBJECTID": 2565, "HF_Name": "SANJAR PUR", "HF_Type": "RURAL HEALTH CENTRE", "Category": "Other", "Latitude": 28.25, "Longitude": 69.980003356899999, "Functional": "Functional", "Population": 0, "UC_NAME": "Walhar", "Tehsil": "Sadiqabad", "Province": "Punjab", "District": "Rahim_Yar_Khan", "Shape_Leng": 3.2740367528299998 }, "geometry": { "type": "Point", "coordinates": [ 69.98327991900004, 28.249210272000028 ] } },
    { "type": "Feature", "properties": { "OBJECTID": 2566, "HF_Name": "CIVILHOSPITAL, FORT*", "HF_Type": "HOSPITAL", "Category": "Other", "Latitude": 29.920000076299999, "Longitude": 69.980003356899999, "Functional": "Functional", "Population": 0, "UC_NAME": "Tuman Leghri", "Tehsil": "DG_Khan", "Province": "Punjab", "District": "Dera_Ghazi_Khan", "Shape_Leng": 3.9630187889299999 }, "geometry": { "type": "Point", "coordinates": [ 69.98257205200008, 29.918462844000032 ] } },
    { "type": "Feature", "properties": { "OBJECTID": 2567, "HF_Name": "BISMILLAH PUR", "HF_Type": "BASIC HEALTH UNIT", "Category": "Other", "Latitude": 28.489999771099999, "Longitude": 70.010002136200001, "Functional": "Functional", "Population": 0, "UC_NAME": "Jamal Din Wali", "Tehsil": "Sadiqabad", "Province": "Punjab", "District": "Rahim_Yar_Khan", "Shape_Leng": 3.2740367528299998 }, "geometry": { "type": "Point", "coordinates": [ 70.008416212000043, 28.493298415000027 ] } },
    { "type": "Feature", "properties": { "OBJECTID": 2568, "HF_Name": "MIRAN PUR", "HF_Type": "BASIC HEALTH UNIT", "Category": "Other", "Latitude": 28.709999084500001, "Longitude": 70.029998779300001, "Functional": "Functional", "Population": 0, "UC_NAME": "Miran Pur", "Tehsil": "Rojhan", "Province": "Punjab", "District": "Rajanpur", "Shape_Leng": 2.8269705862699999 }, "geometry": { "type": "Point", "coordinates": [ 70.026676922000036, 28.708108082000024 ] } },
    { "type": "Feature", "properties": { "OBJECTID": 2569, "HF_Name": "CHAK NO.173/P", "HF_Type": "RURAL HEALTH CENTRE", "Category": "Other", "Latitude": 28.2000007629, "Longitude": 70.040000915500002, "Functional": "Functional", "Population": 0, "UC_NAME": "Goth Jangoo", "Tehsil": "Sadiqabad", "Province": "Punjab", "District": "Rahim_Yar_Khan", "Shape_Leng": 3.2740367528299998 }, "geometry": { "type": "Point", "coordinates": [ 70.041221461000077, 28.205415066000057 ] } },
    { "type": "Feature", "properties": { "OBJECTID": 2570, "HF_Name": "UMER KOT", "HF_Type": "BASIC HEALTH UNIT", "Category": "Other", "Latitude": 28.5499992371, "Longitude": 70.050003051800005, "Functional": "Functional", "Population": 0, "UC_NAME": "Kacha Mianwali", "Tehsil": "Rojhan", "Province": "Punjab", "District": "Rajanpur", "Shape_Leng": 2.8269705862699999 }, "geometry": { "type": "Point", "coordinates": [ 70.045931180000082, 28.545396010000047 ] } },
    { "type": "Feature", "properties": { "OBJECTID": 2571, "HF_Name": "AHMED PUR LAMA", "HF_Type": "RURAL HEALTH CENTRE", "Category": "Other", "Latitude": 28.3199996948, "Longitude": 70.050003051800005, "Functional": "Functional", "Population": 0, "UC_NAME": "Sadiqabad -4", "Tehsil": "Sadiqabad", "Province": "Punjab", "District": "Rahim_Yar_Khan", "Shape_Leng": 3.2740367528299998 }, "geometry": { "type": "Point", "coordinates": [ 70.049158160000047, 28.316605520000053 ] } },
    { "type": "Feature", "properties": { "OBJECTID": 2572, "HF_Name": "JAMAL DIN WALI", "HF_Type": "RURAL HEALTH CENTRE", "Category": "Other", "Latitude": 28.520000457799998, "Longitude": 70.050003051800005, "Functional": "Functional", "Population": 0, "UC_NAME": "Jamal Din Wali", "Tehsil": "Sadiqabad", "Province": "Punjab", "District": "Rahim_Yar_Khan", "Shape_Leng": 3.2740367528299998 }, "geometry": { "type": "Point", "coordinates": [ 70.049187180000047, 28.516569620000041 ] } },
    { "type": "Feature", "properties": { "OBJECTID": 2573, "HF_Name": "F.F.C.HOSPITAL, MAC*", "HF_Type": "HOSPITAL", "Category": "Other", "Latitude": 28.25, "Longitude": 70.069999694800003, "Functional": "Functional", "Population": 0, "UC_NAME": "Goth Jangoo", "Tehsil": "Sadiqabad", "Province": "Punjab", "District": "Rahim_Yar_Khan", "Shape_Leng": 3.2740367528299998 }, "geometry": { "type": "Point", "coordinates": [ 70.066658650000079, 28.25052160000007 ] } },
    { "type": "Feature", "properties": { "OBJECTID": 2574, "HF_Name": "CHACHA", "HF_Type": "DISPENSARY", "Category": "Other", "Latitude": 28.7999992371, "Longitude": 70.080001831100006, "Functional": "Functional", "Population": 0, "UC_NAME": "Miran Pur", "Tehsil": "Rojhan", "Province": "Punjab", "District": "Rajanpur", "Shape_Leng": 2.8269705862699999 }, "geometry": { "type": "Point", "coordinates": [ 70.09503311900005, 28.801078447000066 ] } },
    { "type": "Feature", "properties": { "OBJECTID": 2575, "HF_Name": "KOTLA NASIR", "HF_Type": "SUB HEALTH CENTRE", "Category": "Other", "Latitude": 29.149999618500001, "Longitude": 70.099998474100005, "Functional": "Functional", "Population": 0, "UC_NAME": "Fateh Pur", "Tehsil": "Rajanpur", "Province": "Punjab", "District": "Rajanpur", "Shape_Leng": 2.7720337604299998 }, "geometry": { "type": "Point", "coordinates": [ 70.099404240000069, 29.149703350000038 ] } },
    { "type": "Feature", "properties": { "OBJECTID": 2576, "HF_Name": "THUL SAID KHAN", "HF_Type": "SUB HEALTH CENTRE", "Category": "Other", "Latitude": 29.530000686600001, "Longitude": 70.099998474100005, "Functional": "Functional", "Population": 0, "UC_NAME": "Harand", "Tehsil": "Jampur", "Province": "Punjab", "District": "Rajanpur", "Shape_Leng": 2.3167620953300001 }, "geometry": { "type": "Point", "coordinates": [ 70.098289133000037, 29.528061389000072 ] } },
    { "type": "Feature", "properties": { "OBJECTID": 2577, "HF_Name": "HARRAND", "HF_Type": "RURAL HEALTH CENTRE", "Category": "Other", "Latitude": 29.5499992371, "Longitude": 70.110000610399993, "Functional": "Functional", "Population": 0, "UC_NAME": "Harand", "Tehsil": "Jampur", "Province": "Punjab", "District": "Rajanpur", "Shape_Leng": 2.3167620953300001 }, "geometry": { "type": "Point", "coordinates": [ 70.109976050000057, 29.547592993000023 ] } },
    { "type": "Feature", "properties": { "OBJECTID": 2578, "HF_Name": "MUBARKI", "HF_Type": "DISPENSARY", "Category": "Other", "Latitude": 30.25, "Longitude": 70.110000610399993, "Functional": "Functional", "Population": 0, "UC_NAME": "Tuman Leghri", "Tehsil": "DG_Khan", "Province": "Punjab", "District": "Dera_Ghazi_Khan", "Shape_Leng": 3.9630187889299999 }, "geometry": { "type": "Point", "coordinates": [ 70.11484887000006, 30.248782060000053 ] } },
    { "type": "Feature", "properties": { "OBJECTID": 2579, "HF_Name": "THUL ALI MOHAMMAD", "HF_Type": "SUB HEALTH CENTRE", "Category": "Other", "Latitude": 29.659999847400002, "Longitude": 70.120002746599994, "Functional": "Functional", "Population": 0, "UC_NAME": "Tibbi Lundnan", "Tehsil": "Jampur", "Province": "Punjab", "District": "Rajanpur", "Shape_Leng": 2.3167620953300001 }, "geometry": { "type": "Point", "coordinates": [ 70.120368710000037, 29.659566342000062 ] } },
    { "type": "Feature", "properties": { "OBJECTID": 2580, "HF_Name": "TIBBI LUNDIAN", "HF_Type": "BASIC HEALTH UNIT", "Category": "Other", "Latitude": 29.600000381499999, "Longitude": 70.129997253400006, "Functional": "Functional", "Population": 0, "UC_NAME": "Tibbi Lundnan", "Tehsil": "Jampur", "Province": "Punjab", "District": "Rajanpur", "Shape_Leng": 2.3167620953300001 }, "geometry": { "type": "Point", "coordinates": [ 70.123926184000084, 29.59441866700007 ] } },
    { "type": "Feature", "properties": { "OBJECTID": 2581, "HF_Name": "SADIQABAD", "HF_Type": "MATERNAL & CHILD HEALTH CENTRE", "Category": "Other", "Latitude": 28.2999992371, "Longitude": 70.129997253400006, "Functional": "Functional", "Population": 0, "UC_NAME": "Sadiqabad", "Tehsil": "Sadiqabad", "Province": "Punjab", "District": "Rahim_Yar_Khan", "Shape_Leng": 3.2740367528299998 }, "geometry": { "type": "Point", "coordinates": [ 70.133790182000041, 28.300052641000036 ] } },
    { "type": "Feature", "properties": { "OBJECTID": 2582, "HF_Name": "MUD RUNDIAN", "HF_Type": "SUB HEALTH CENTRE", "Category": "Other", "Latitude": 29.590000152599998, "Longitude": 70.139999389600007, "Functional": "Functional", "Population": 0, "UC_NAME": "Tibbi Lundnan", "Tehsil": "Jampur", "Province": "Punjab", "District": "Rajanpur", "Shape_Leng": 2.3167620953300001 }, "geometry": { "type": "Point", "coordinates": [ 70.140783480000039, 29.591158540000038 ] } },
    { "type": "Feature", "properties": { "OBJECTID": 2583, "HF_Name": "KOT KARAM KHAN", "HF_Type": "BASIC HEALTH UNIT", "Category": "Other", "Latitude": 28.590000152599998, "Longitude": 70.139999389600007, "Functional": "Functional", "Population": 0, "UC_NAME": "Rajan Pyr", "Tehsil": "Rahim_Yar_Khan", "Province": "Punjab", "District": "Rahim_Yar_Khan", "Shape_Leng": 2.6399806420599998 }, "geometry": { "type": "Point", "coordinates": [ 70.143089050000071, 28.588432630000057 ] } },
    { "type": "Feature", "properties": { "OBJECTID": 2584, "HF_Name": "RAKHI MUNH", "HF_Type": "BASIC HEALTH UNIT", "Category": "Other", "Latitude": 29.969999313399999, "Longitude": 70.150001525899995, "Functional": "Functional", "Population": 0, "UC_NAME": "Tuman Leghri", "Tehsil": "DG_Khan", "Province": "Punjab", "District": "Dera_Ghazi_Khan", "Shape_Leng": 3.9630187889299999 }, "geometry": { "type": "Point", "coordinates": [ 70.150371150000069, 29.967501150000032 ] } },
    { "type": "Feature", "properties": { "OBJECTID": 2585, "HF_Name": "DRIGRI", "HF_Type": "BASIC HEALTH UNIT", "Category": "Other", "Latitude": 29.399999618500001, "Longitude": 70.150001525899995, "Functional": "Functional", "Population": 0, "UC_NAME": "Wah Lushari", "Tehsil": "Jampur", "Province": "Punjab", "District": "Rajanpur", "Shape_Leng": 2.3167620953300001 }, "geometry": { "type": "Point", "coordinates": [ 70.150440938000031, 29.401399539000067 ] } },
    { "type": "Feature", "properties": { "OBJECTID": 2586, "HF_Name": "CIVILHOSPITAL, LAL *", "HF_Type": "HOSPITAL", "Category": "Other", "Latitude": 29.5, "Longitude": 70.160003662099996, "Functional": "Functional", "Population": 0, "UC_NAME": "Harand", "Tehsil": "Jampur", "Province": "Punjab", "District": "Rajanpur", "Shape_Leng": 2.3167620953300001 }, "geometry": { "type": "Point", "coordinates": [ 70.161327190000065, 29.500203120000037 ] } },
    { "type": "Feature", "properties": { "OBJECTID": 2587, "HF_Name": "KOTLA HASSAN SHAH", "HF_Type": "BASIC HEALTH UNIT", "Category": "Other", "Latitude": 28.879999160800001, "Longitude": 70.180000305199997, "Functional": "Functional", "Population": 0, "UC_NAME": "Sabzani", "Tehsil": "Rojhan", "Province": "Punjab", "District": "Rajanpur", "Shape_Leng": 2.8269705862699999 }, "geometry": { "type": "Point", "coordinates": [ 70.185252177000052, 28.881770827000025 ] } },
    { "type": "Feature", "properties": { "OBJECTID": 2588, "HF_Name": "THUL SERIK", "HF_Type": "SUB HEALTH CENTRE", "Category": "Other", "Latitude": 29.739999771099999, "Longitude": 70.180000305199997, "Functional": "Functional", "Population": 0, "UC_NAME": "Tibbi Lundnan", "Tehsil": "Jampur", "Province": "Punjab", "District": "Rajanpur", "Shape_Leng": 2.3167620953300001 }, "geometry": { "type": "Point", "coordinates": [ 70.178514840000048, 29.735108430000025 ] } },
    { "type": "Feature", "properties": { "OBJECTID": 2589, "HF_Name": "CHAK NO. 45/A", "HF_Type": "BASIC HEALTH UNIT", "Category": "Other", "Latitude": 28.600000381499999, "Longitude": 70.180000305199997, "Functional": "Functional", "Population": 0, "UC_NAME": "Murtaza Abad", "Tehsil": "Rahim_Yar_Khan", "Province": "Punjab", "District": "Rahim_Yar_Khan", "Shape_Leng": 2.6399806420599998 }, "geometry": { "type": "Point", "coordinates": [ 70.183637863000058, 28.59894728200004 ] } },
    { "type": "Feature", "properties": { "OBJECTID": 2590, "HF_Name": "NOOR PUR", "HF_Type": "BASIC HEALTH UNIT", "Category": "Other", "Latitude": 28.690000534100001, "Longitude": 70.199996948199995, "Functional": "Functional", "Population": 0, "UC_NAME": "Kacha Mianwali", "Tehsil": "Rojhan", "Province": "Punjab", "District": "Rajanpur", "Shape_Leng": 2.8269705862699999 }, "geometry": { "type": "Point", "coordinates": [ 70.202673848000074, 28.689567520000026 ] } },
    { "type": "Feature", "properties": { "OBJECTID": 2591, "HF_Name": "BADLI SHARIF", "HF_Type": "BASIC HEALTH UNIT", "Category": "Other", "Latitude": 28.5499992371, "Longitude": 70.199996948199995, "Functional": "Functional", "Population": 0, "UC_NAME": "Kot Mehndi Shah", "Tehsil": "Rahim_Yar_Khan", "Province": "Punjab", "District": "Rahim_Yar_Khan", "Shape_Leng": 2.6399806420599998 }, "geometry": { "type": "Point", "coordinates": [ 70.199697403000073, 28.549844872000051 ] } },
    { "type": "Feature", "properties": { "OBJECTID": 2592, "HF_Name": "LATKI", "HF_Type": "BASIC HEALTH UNIT", "Category": "Other", "Latitude": 28.329999923700001, "Longitude": 70.199996948199995, "Functional": "Functional", "Population": 0, "UC_NAME": "Adam Sohaba", "Tehsil": "Sadiqabad", "Province": "Punjab", "District": "Rahim_Yar_Khan", "Shape_Leng": 3.2740367528299998 }, "geometry": { "type": "Point", "coordinates": [ 70.20013251000006, 28.329045240000028 ] } },
    { "type": "Feature", "properties": { "OBJECTID": 2593, "HF_Name": "MUHAMMAD PUR HANBI", "HF_Type": "SUB HEALTH CENTRE", "Category": "Other", "Latitude": 29.579999923700001, "Longitude": 70.199996948199995, "Functional": "Functional", "Population": 0, "UC_NAME": "Harand", "Tehsil": "Jampur", "Province": "Punjab", "District": "Rajanpur", "Shape_Leng": 2.3167620953300001 }, "geometry": { "type": "Point", "coordinates": [ 70.205717063000066, 29.573430838000036 ] } },
    { "type": "Feature", "properties": { "OBJECTID": 2594, "HF_Name": null, "HF_Type": "HOSPITAL", "Category": "Other", "Latitude": 28.600000381499999, "Longitude": 70.199996948199995, "Functional": "Functional", "Population": 0, "UC_NAME": "Murtaza Abad", "Tehsil": "Rahim_Yar_Khan", "Province": "Punjab", "District": "Rahim_Yar_Khan", "Shape_Leng": 2.6399806420599998 }, "geometry": { "type": "Point", "coordinates": [ 70.204488009000045, 28.599369460000048 ] } },
    { "type": "Feature", "properties": { "OBJECTID": 2595, "HF_Name": "BASTI ABDUL KARIM(R*", "HF_Type": "BASIC HEALTH UNIT", "Category": "Other", "Latitude": 28.409999847400002, "Longitude": 70.209999084499998, "Functional": "Functional", "Population": 0, "UC_NAME": "Ranjhe Khan", "Tehsil": "Sadiqabad", "Province": "Punjab", "District": "Rahim_Yar_Khan", "Shape_Leng": 3.2740367528299998 }, "geometry": { "type": "Point", "coordinates": [ 70.205493324000031, 28.408942977000038 ] } },
    { "type": "Feature", "properties": { "OBJECTID": 2596, "HF_Name": "KHANJKI WALA", "HF_Type": "BASIC HEALTH UNIT", "Category": "Other", "Latitude": 28.520000457799998, "Longitude": 70.209999084499998, "Functional": "Functional", "Population": 0, "UC_NAME": "Kot Mehndi Shah", "Tehsil": "Rahim_Yar_Khan", "Province": "Punjab", "District": "Rahim_Yar_Khan", "Shape_Leng": 2.6399806420599998 }, "geometry": { "type": "Point", "coordinates": [ 70.205193911000038, 28.516625235000049 ] } },
    { "type": "Feature", "properties": { "OBJECTID": 2597, "HF_Name": "BHAG SIR", "HF_Type": "SUB HEALTH CENTRE", "Category": "Other", "Latitude": 28.829999923700001, "Longitude": 70.209999084499998, "Functional": "Functional", "Population": 0, "UC_NAME": "Sabzani", "Tehsil": "Rojhan", "Province": "Punjab", "District": "Rajanpur", "Shape_Leng": 2.8269705862699999 }, "geometry": { "type": "Point", "coordinates": [ 70.20667953700007, 28.834941790000073 ] } },
    { "type": "Feature", "properties": { "OBJECTID": 2598, "HF_Name": "SUBZANI", "HF_Type": "DISPENSARY", "Category": "Other", "Latitude": 28.780000686600001, "Longitude": 70.209999084499998, "Functional": "Functional", "Population": 0, "UC_NAME": "Sabzani", "Tehsil": "Rojhan", "Province": "Punjab", "District": "Rajanpur", "Shape_Leng": 2.8269705862699999 }, "geometry": { "type": "Point", "coordinates": [ 70.195678691000069, 28.800501268000062 ] } },
    { "type": "Feature", "properties": { "OBJECTID": 2599, "HF_Name": "MOHAMMAD PUR", "HF_Type": "RURAL HEALTH CENTRE", "Category": "Other", "Latitude": 29.149999618500001, "Longitude": 70.209999084499998, "Functional": "Functional", "Population": 0, "UC_NAME": "Fateh Pur", "Tehsil": "Rajanpur", "Province": "Punjab", "District": "Rajanpur", "Shape_Leng": 2.7720337604299998 }, "geometry": { "type": "Point", "coordinates": [ 70.209164931000032, 29.149994853000067 ] } },
    { "type": "Feature", "properties": { "OBJECTID": 2600, "HF_Name": "SALEEM ABAD", "HF_Type": "BASIC HEALTH UNIT", "Category": "Other", "Latitude": 28.870000839199999, "Longitude": 70.220001220699999, "Functional": "Functional", "Population": 0, "UC_NAME": "Sabzani", "Tehsil": "Rojhan", "Province": "Punjab", "District": "Rajanpur", "Shape_Leng": 2.8269705862699999 }, "geometry": { "type": "Point", "coordinates": [ 70.220178230000045, 28.870292445000075 ] } },
    { "type": "Feature", "properties": { "OBJECTID": 2601, "HF_Name": "KARKHANA", "HF_Type": "BASIC HEALTH UNIT", "Category": "Other", "Latitude": 30.840000152599998, "Longitude": 70.239997863799999, "Functional": "Functional", "Population": 0, "UC_NAME": "Fazil Kack", "Tehsil": "DG_Khan", "Province": "Punjab", "District": "Dera_Ghazi_Khan", "Shape_Leng": 3.9630187889299999 }, "geometry": { "type": "Point", "coordinates": [ 70.248110143000076, 30.838860471000032 ] } },
    { "type": "Feature", "properties": { "OBJECTID": 2602, "HF_Name": "ASNI", "HF_Type": "DISPENSARY", "Category": "Other", "Latitude": 29.010000228900001, "Longitude": 70.25, "Functional": "Functional", "Population": 0, "UC_NAME": "Murghai", "Tehsil": "Rajanpur", "Province": "Punjab", "District": "Rajanpur", "Shape_Leng": 2.7720337604299998 }, "geometry": { "type": "Point", "coordinates": [ 70.25783171300003, 29.002133394000055 ] } },
    { "type": "Feature", "properties": { "OBJECTID": 2603, "HF_Name": "CHOTI BALA", "HF_Type": "BASIC HEALTH UNIT", "Category": "Other", "Latitude": 29.8199996948, "Longitude": 70.25, "Functional": "Functional", "Population": 0, "UC_NAME": "Chotti Zareen", "Tehsil": "Kot_Chatta", "Province": "Punjab", "District": "Dera_Ghazi_Khan", "Shape_Leng": 2.6145173128399999 }, "geometry": { "type": "Point", "coordinates": [ 70.249390910000045, 29.816376450000064 ] } },
    { "type": "Feature", "properties": { "OBJECTID": 2604, "HF_Name": "FATEH PUR", "HF_Type": "BASIC HEALTH UNIT", "Category": "Other", "Latitude": 29.25, "Longitude": 70.25, "Functional": "Functional", "Population": 0, "UC_NAME": "Fateh Pur", "Tehsil": "Rajanpur", "Province": "Punjab", "District": "Rajanpur", "Shape_Leng": 2.7720337604299998 }, "geometry": { "type": "Point", "coordinates": [ 70.248630775000038, 29.251726834000067 ] } },
    { "type": "Feature", "properties": { "OBJECTID": 2605, "HF_Name": "ABAD PUR", "HF_Type": "BASIC HEALTH UNIT", "Category": "Other", "Latitude": 28.6800003052, "Longitude": 70.25, "Functional": "Functional", "Population": 0, "UC_NAME": "Ahmad Pur", "Tehsil": "Rahim_Yar_Khan", "Province": "Punjab", "District": "Rahim_Yar_Khan", "Shape_Leng": 2.6399806420599998 }, "geometry": { "type": "Point", "coordinates": [ 70.246860919000028, 28.682456568000077 ] } },
    { "type": "Feature", "properties": { "OBJECTID": 2606, "HF_Name": "TUMAN BUZDAR II.", "HF_Type": "BASIC HEALTH UNIT", "Category": "Other", "Latitude": 30.579999923700001, "Longitude": 70.25, "Functional": "Functional", "Population": 0, "UC_NAME": "Urthi", "Tehsil": "DG_Khan", "Province": "Punjab", "District": "Dera_Ghazi_Khan", "Shape_Leng": 3.9630187889299999 }, "geometry": { "type": "Point", "coordinates": [ 70.251043210000034, 30.584659990000034 ] } },
    { "type": "Feature", "properties": { "OBJECTID": 2607, "HF_Name": "CHITTARI", "HF_Type": "SUB HEALTH CENTRE", "Category": "Other", "Latitude": 29.8199996948, "Longitude": 70.25, "Functional": "Functional", "Population": 0, "UC_NAME": "Chotti Zareen", "Tehsil": "Kot_Chatta", "Province": "Punjab", "District": "Dera_Ghazi_Khan", "Shape_Leng": 2.6145173128399999 }, "geometry": { "type": "Point", "coordinates": [ 70.251706100000035, 29.822357360000069 ] } },
    { "type": "Feature", "properties": { "OBJECTID": 2608, "HF_Name": "MURGHAI", "HF_Type": "BASIC HEALTH UNIT", "Category": "Other", "Latitude": 28.909999847400002, "Longitude": 70.260002136200001, "Functional": "Functional", "Population": 0, "UC_NAME": "Murghai", "Tehsil": "Rajanpur", "Province": "Punjab", "District": "Rajanpur", "Shape_Leng": 2.7720337604299998 }, "geometry": { "type": "Point", "coordinates": [ 70.267811086000052, 28.906748695000033 ] } },
    { "type": "Feature", "properties": { "OBJECTID": 2609, "HF_Name": "PHUGLA", "HF_Type": "DISPENSARY", "Category": "Other", "Latitude": 30.8199996948, "Longitude": 70.260002136200001, "Functional": "Functional", "Population": 0, "UC_NAME": "Fazil Kack", "Tehsil": "DG_Khan", "Province": "Punjab", "District": "Dera_Ghazi_Khan", "Shape_Leng": 3.9630187889299999 }, "geometry": { "type": "Point", "coordinates": [ 70.264533894000067, 30.818023147000076 ] } },
    { "type": "Feature", "properties": { "OBJECTID": 2610, "HF_Name": "MUHAMMAD GARH", "HF_Type": "SUB HEALTH CENTRE", "Category": "Other", "Latitude": 30.8199996948, "Longitude": 70.269996643100001, "Functional": "Functional", "Population": 0, "UC_NAME": "Fazil Kack", "Tehsil": "DG_Khan", "Province": "Punjab", "District": "Dera_Ghazi_Khan", "Shape_Leng": 3.9630187889299999 }, "geometry": { "type": "Point", "coordinates": [ 70.27042834000008, 30.818817081000077 ] } },
    { "type": "Feature", "properties": { "OBJECTID": 2611, "HF_Name": "KOT HAQ NAWAZ", "HF_Type": "BASIC HEALTH UNIT", "Category": "Other", "Latitude": 28.6100006104, "Longitude": 70.279998779300001, "Functional": "Functional", "Population": 0, "UC_NAME": "Pollu Shah", "Tehsil": "Rahim_Yar_Khan", "Province": "Punjab", "District": "Rahim_Yar_Khan", "Shape_Leng": 2.6399806420599998 }, "geometry": { "type": "Point", "coordinates": [ 70.282766440000046, 28.605867810000063 ] } },
    { "type": "Feature", "properties": { "OBJECTID": 2612, "HF_Name": "TIBBI SOLGI", "HF_Type": "SUB HEALTH CENTRE", "Category": "Other", "Latitude": 29.510000228900001, "Longitude": 70.290000915500002, "Functional": "Functional", "Population": 0, "UC_NAME": "Wah Lushari", "Tehsil": "Jampur", "Province": "Punjab", "District": "Rajanpur", "Shape_Leng": 2.3167620953300001 }, "geometry": { "type": "Point", "coordinates": [ 70.291291227000045, 29.517995288000066 ] } },
    { "type": "Feature", "properties": { "OBJECTID": 2613, "HF_Name": "0BASTI AZEEM", "HF_Type": "SUB HEALTH CENTRE", "Category": "Other", "Latitude": 30.9500007629, "Longitude": 70.290000915500002, "Functional": "Functional", "Population": 0, "UC_NAME": "Tuman Quaisrani", "Tehsil": "DG_Khan", "Province": "Punjab", "District": "Dera_Ghazi_Khan", "Shape_Leng": 3.9630187889299999 }, "geometry": { "type": "Point", "coordinates": [ 70.294716, 30.952833940000062 ] } },
    { "type": "Feature", "properties": { "OBJECTID": 2614, "HF_Name": "HSAN PUR", "HF_Type": "BASIC HEALTH UNIT", "Category": "Other", "Latitude": 28.729999542200002, "Longitude": 70.300003051800005, "Functional": "Functional", "Population": 0, "UC_NAME": "Shah Pur", "Tehsil": "Rahim_Yar_Khan", "Province": "Punjab", "District": "Rahim_Yar_Khan", "Shape_Leng": 2.6399806420599998 }, "geometry": { "type": "Point", "coordinates": [ 70.294802196000035, 28.72891474000005 ] } },
    { "type": "Feature", "properties": { "OBJECTID": 2615, "HF_Name": "CHAK ABBAS", "HF_Type": "BASIC HEALTH UNIT", "Category": "Other", "Latitude": 28.520000457799998, "Longitude": 70.300003051800005, "Functional": "Functional", "Population": 0, "UC_NAME": "Mau Mubarik", "Tehsil": "Rahim_Yar_Khan", "Province": "Punjab", "District": "Rahim_Yar_Khan", "Shape_Leng": 2.6399806420599998 }, "geometry": { "type": "Point", "coordinates": [ 70.300958, 28.516278364000073 ] } },
    { "type": "Feature", "properties": { "OBJECTID": 2616, "HF_Name": null, "HF_Type": "HOSPITAL", "Category": "Other", "Latitude": 28.420000076299999, "Longitude": 70.300003051800005, "Functional": "Functional", "Population": 0, "UC_NAME": "R.Y.Khan-1", "Tehsil": "Rahim_Yar_Khan", "Province": "Punjab", "District": "Rahim_Yar_Khan", "Shape_Leng": 2.6399806420599998 }, "geometry": { "type": "Point", "coordinates": [ 70.300042, 28.416025270000034 ] } },
    { "type": "Feature", "properties": { "OBJECTID": 2617, "HF_Name": "BANGLA ICHA", "HF_Type": "DISPENSARY", "Category": "Other", "Latitude": 28.850000381499999, "Longitude": 70.309997558600003, "Functional": "Functional", "Population": 0, "UC_NAME": "Murghai", "Tehsil": "Rajanpur", "Province": "Punjab", "District": "Rajanpur", "Shape_Leng": 2.7720337604299998 }, "geometry": { "type": "Point", "coordinates": [ 70.308775646000072, 28.846309174000055 ] } },
    { "type": "Feature", "properties": { "OBJECTID": 2618, "HF_Name": "BANGALA ICHA", "HF_Type": "RURAL HEALTH CENTRE", "Category": "Other", "Latitude": 28.850000381499999, "Longitude": 70.309997558600003, "Functional": "Functional", "Population": 0, "UC_NAME": "Murghai", "Tehsil": "Rajanpur", "Province": "Punjab", "District": "Rajanpur", "Shape_Leng": 2.7720337604299998 }, "geometry": { "type": "Point", "coordinates": [ 70.314036760000079, 28.856901406000077 ] } },
    { "type": "Feature", "properties": { "OBJECTID": 2619, "HF_Name": "JAHANPUR", "HF_Type": "BASIC HEALTH UNIT", "Category": "Other", "Latitude": 29.1800003052, "Longitude": 70.309997558600003, "Functional": "Functional", "Population": 0, "UC_NAME": "Jahanpur", "Tehsil": "Rajanpur", "Province": "Punjab", "District": "Rajanpur", "Shape_Leng": 2.7720337604299998 }, "geometry": { "type": "Point", "coordinates": [ 70.309770799000034, 29.179913050000039 ] } },
    { "type": "Feature", "properties": { "OBJECTID": 2620, "HF_Name": "DHQ HOSPITAL RAJANP*", "HF_Type": "DISPENSARY", "Category": "Other", "Latitude": 29.120000839199999, "Longitude": 70.319999694800003, "Functional": "Functional", "Population": 0, "UC_NAME": "Jahanpur", "Tehsil": "Rajanpur", "Province": "Punjab", "District": "Rajanpur", "Shape_Leng": 2.7720337604299998 }, "geometry": { "type": "Point", "coordinates": [ 70.322088690000044, 29.124398300000053 ] } },
    { "type": "Feature", "properties": { "OBJECTID": 2621, "HF_Name": "FAZLA KATCH", "HF_Type": "BASIC HEALTH UNIT", "Category": "Other", "Latitude": 30.760000228900001, "Longitude": 70.319999694800003, "Functional": "Functional", "Population": 0, "UC_NAME": "Fazil Kack", "Tehsil": "DG_Khan", "Province": "Punjab", "District": "Dera_Ghazi_Khan", "Shape_Leng": 3.9630187889299999 }, "geometry": { "type": "Point", "coordinates": [ 70.323846330000038, 30.755110171000069 ] } },
    { "type": "Feature", "properties": { "OBJECTID": 2622, "HF_Name": "RAJANPUR", "HF_Type": "DISPENSARY", "Category": "Other", "Latitude": 29.120000839199999, "Longitude": 70.330001831100006, "Functional": "Functional", "Population": 0, "UC_NAME": "Jahanpur", "Tehsil": "Rajanpur", "Province": "Punjab", "District": "Rajanpur", "Shape_Leng": 2.7720337604299998 }, "geometry": { "type": "Point", "coordinates": [ 70.326760125000078, 29.122450877000063 ] } },
    { "type": "Feature", "properties": { "OBJECTID": 2623, "HF_Name": "RAJANPUR", "HF_Type": "DISPENSARY", "Category": "Other", "Latitude": 29.120000839199999, "Longitude": 70.330001831100006, "Functional": "Functional", "Population": 0, "UC_NAME": "Jahanpur", "Tehsil": "Rajanpur", "Province": "Punjab", "District": "Rajanpur", "Shape_Leng": 2.7720337604299998 }, "geometry": { "type": "Point", "coordinates": [ 70.328731972000071, 29.12458891700004 ] } },
    { "type": "Feature", "properties": { "OBJECTID": 2624, "HF_Name": "KOTLA NASIR", "HF_Type": "BASIC HEALTH UNIT", "Category": "Other", "Latitude": 29.0499992371, "Longitude": 70.330001831100006, "Functional": "Functional", "Population": 0, "UC_NAME": "Kotla Nasir", "Tehsil": "Rajanpur", "Province": "Punjab", "District": "Rajanpur", "Shape_Leng": 2.7720337604299998 }, "geometry": { "type": "Point", "coordinates": [ 70.329233650000049, 29.04901902000006 ] } },
    { "type": "Feature", "properties": { "OBJECTID": 2625, "HF_Name": "KOT MITTHAN", "HF_Type": "RURAL HEALTH CENTRE", "Category": "Other", "Latitude": 28.9500007629, "Longitude": 70.360000610399993, "Functional": "Functional", "Population": 0, "UC_NAME": "Kot Mithan", "Tehsil": "Rajanpur", "Province": "Punjab", "District": "Rajanpur", "Shape_Leng": 2.7720337604299998 }, "geometry": { "type": "Point", "coordinates": [ 70.357813470000053, 28.949346890000072 ] } },
    { "type": "Feature", "properties": { "OBJECTID": 2626, "HF_Name": "MAU MUBARIK", "HF_Type": "SUB HEALTH CENTRE", "Category": "Other", "Latitude": 28.530000686600001, "Longitude": 70.370002746599994, "Functional": "Functional", "Population": 0, "UC_NAME": "Mau Mubarik", "Tehsil": "Rahim_Yar_Khan", "Province": "Punjab", "District": "Rahim_Yar_Khan", "Shape_Leng": 2.6399806420599998 }, "geometry": { "type": "Point", "coordinates": [ 70.365242597000076, 28.534294479000039 ] } },
    { "type": "Feature", "properties": { "OBJECTID": 2627, "HF_Name": "BAIT BATWALA", "HF_Type": "SUB HEALTH CENTRE", "Category": "Other", "Latitude": 30.559999465899999, "Longitude": 70.370002746599994, "Functional": "Functional", "Population": 0, "UC_NAME": "Urthi", "Tehsil": "DG_Khan", "Province": "Punjab", "District": "Dera_Ghazi_Khan", "Shape_Leng": 3.9630187889299999 }, "geometry": { "type": "Point", "coordinates": [ 70.365810457000066, 30.559944639000037 ] } },
    { "type": "Feature", "properties": { "OBJECTID": 2628, "HF_Name": "TAUNSA", "HF_Type": "MATERNAL & CHILD HEALTH CENTRE", "Category": "Other", "Latitude": 30.5499992371, "Longitude": 70.370002746599994, "Functional": "Functional", "Population": 0, "UC_NAME": "Urthi", "Tehsil": "DG_Khan", "Province": "Punjab", "District": "Dera_Ghazi_Khan", "Shape_Leng": 3.9630187889299999 }, "geometry": { "type": "Point", "coordinates": [ 70.365074780000043, 30.551851619000047 ] } },
    { "type": "Feature", "properties": { "OBJECTID": 2629, "HF_Name": "KHAR BUZDAR", "HF_Type": "BASIC HEALTH UNIT", "Category": "Other", "Latitude": 30.75, "Longitude": 70.370002746599994, "Functional": "Functional", "Population": 0, "UC_NAME": "Urthi", "Tehsil": "DG_Khan", "Province": "Punjab", "District": "Dera_Ghazi_Khan", "Shape_Leng": 3.9630187889299999 }, "geometry": { "type": "Point", "coordinates": [ 70.365736188000028, 30.750320682000051 ] } },
    { "type": "Feature", "properties": { "OBJECTID": 2630, "HF_Name": "GHOKE GULAB SHAH", "HF_Type": "BASIC HEALTH UNIT", "Category": "Other", "Latitude": 28.620000839199999, "Longitude": 70.370002746599994, "Functional": "Functional", "Population": 0, "UC_NAME": "Sonak", "Tehsil": "Rahim_Yar_Khan", "Province": "Punjab", "District": "Rahim_Yar_Khan", "Shape_Leng": 2.6399806420599998 }, "geometry": { "type": "Point", "coordinates": [ 70.368619385000045, 28.624304149000068 ] } },
    { "type": "Feature", "properties": { "OBJECTID": 2631, "HF_Name": "MIAN WALI QURESHEIAN", "HF_Type": "RURAL HEALTH CENTRE", "Category": "Other", "Latitude": 28.659999847400002, "Longitude": 70.370002746599994, "Functional": "Functional", "Population": 0, "UC_NAME": "Mianwali Qureshian", "Tehsil": "Rahim_Yar_Khan", "Province": "Punjab", "District": "Rahim_Yar_Khan", "Shape_Leng": 2.6399806420599998 }, "geometry": { "type": "Point", "coordinates": [ 70.371045220000042, 28.656080140000029 ] } },
    { "type": "Feature", "properties": { "OBJECTID": 2632, "HF_Name": "KOTLA EASON", "HF_Type": "BASIC HEALTH UNIT", "Category": "Other", "Latitude": 29.1800003052, "Longitude": 70.379997253400006, "Functional": "Functional", "Population": 0, "UC_NAME": "Kotla Isan", "Tehsil": "Rajanpur", "Province": "Punjab", "District": "Rajanpur", "Shape_Leng": 2.7720337604299998 }, "geometry": { "type": "Point", "coordinates": [ 70.376844193000068, 29.180698389000042 ] } },
    { "type": "Feature", "properties": { "OBJECTID": 2633, "HF_Name": "DAJAL", "HF_Type": "RURAL HEALTH CENTRE", "Category": "Other", "Latitude": 29.5499992371, "Longitude": 70.379997253400006, "Functional": "Functional", "Population": 0, "UC_NAME": "Dajal", "Tehsil": "Jampur", "Province": "Punjab", "District": "Rajanpur", "Shape_Leng": 2.3167620953300001 }, "geometry": { "type": "Point", "coordinates": [ 70.377334396000037, 29.555383486000039 ] } },
    { "type": "Feature", "properties": { "OBJECTID": 2634, "HF_Name": "RUKAN PUR", "HF_Type": "BASIC HEALTH UNIT", "Category": "Other", "Latitude": 28.780000686600001, "Longitude": 70.379997253400006, "Functional": "Functional", "Population": 0, "UC_NAME": "Thul Khair Mohammad Khan", "Tehsil": "Rahim_Yar_Khan", "Province": "Punjab", "District": "Rahim_Yar_Khan", "Shape_Leng": 2.6399806420599998 }, "geometry": { "type": "Point", "coordinates": [ 70.384861950000072, 28.779812008000079 ] } },
    { "type": "Feature", "properties": { "OBJECTID": 2635, "HF_Name": "WANG", "HF_Type": "BASIC HEALTH UNIT", "Category": "Other", "Latitude": 29.0, "Longitude": 70.400001525899995, "Functional": "Functional", "Population": 0, "UC_NAME": "Kot Mithan", "Tehsil": "Rajanpur", "Province": "Punjab", "District": "Rajanpur", "Shape_Leng": 2.7720337604299998 }, "geometry": { "type": "Point", "coordinates": [ 70.396311597000079, 28.999677019000046 ] } },
    { "type": "Feature", "properties": { "OBJECTID": 2636, "HF_Name": "SONAK", "HF_Type": "BASIC HEALTH UNIT", "Category": "Other", "Latitude": 28.620000839199999, "Longitude": 70.400001525899995, "Functional": "Functional", "Population": 0, "UC_NAME": "Tibbi Gul Mohammad", "Tehsil": "Rahim_Yar_Khan", "Province": "Punjab", "District": "Rahim_Yar_Khan", "Shape_Leng": 2.6399806420599998 }, "geometry": { "type": "Point", "coordinates": [ 70.400809482000057, 28.616761695000037 ] } },
    { "type": "Feature", "properties": { "OBJECTID": 2637, "HF_Name": "TRINDA SAWAYA KHAN", "HF_Type": "RURAL HEALTH CENTRE", "Category": "Other", "Latitude": 28.479999542200002, "Longitude": 70.410003662099996, "Functional": "Functional", "Population": 0, "UC_NAME": "Dari Azim Khan", "Tehsil": "Rahim_Yar_Khan", "Province": "Punjab", "District": "Rahim_Yar_Khan", "Shape_Leng": 2.6399806420599998 }, "geometry": { "type": "Point", "coordinates": [ 70.406307390000052, 28.477940850000039 ] } },
    { "type": "Feature", "properties": { "OBJECTID": 2638, "HF_Name": "DALANA", "HF_Type": "BASIC HEALTH UNIT", "Category": "Other", "Latitude": 30.0699996948, "Longitude": 70.410003662099996, "Functional": "Functional", "Population": 0, "UC_NAME": "Sakhi Sarwar", "Tehsil": "Kot_Chatta", "Province": "Punjab", "District": "Dera_Ghazi_Khan", "Shape_Leng": 2.6145173128399999 }, "geometry": { "type": "Point", "coordinates": [ 70.411440815000049, 30.072015492000048 ] } },
    { "type": "Feature", "properties": { "OBJECTID": 2639, "HF_Name": "MITYEY WALI", "HF_Type": "SUB HEALTH CENTRE", "Category": "Other", "Latitude": 29.659999847400002, "Longitude": 70.419998168899994, "Functional": "Functional", "Population": 0, "UC_NAME": "D.J.K Shirki", "Tehsil": "Kot_Chatta", "Province": "Punjab", "District": "Dera_Ghazi_Khan", "Shape_Leng": 2.6145173128399999 }, "geometry": { "type": "Point", "coordinates": [ 70.419660164000049, 29.659019988000068 ] } },
    { "type": "Feature", "properties": { "OBJECTID": 2640, "HF_Name": "SHIKAR PUR", "HF_Type": "BASIC HEALTH UNIT", "Category": "Other", "Latitude": 29.159999847400002, "Longitude": 70.430000305199997, "Functional": "Functional", "Population": 0, "UC_NAME": "Shikar Pur", "Tehsil": "Rajanpur", "Province": "Punjab", "District": "Rajanpur", "Shape_Leng": 2.7720337604299998 }, "geometry": { "type": "Point", "coordinates": [ 70.43375749900008, 29.165393182000059 ] } },
    { "type": "Feature", "properties": { "OBJECTID": 2641, "HF_Name": "SIKANI WALA", "HF_Type": "SUB HEALTH CENTRE", "Category": "Other", "Latitude": 29.309999465899999, "Longitude": 70.430000305199997, "Functional": "Functional", "Population": 0, "UC_NAME": "Pir Bux Sharqi", "Tehsil": "Rajanpur", "Province": "Punjab", "District": "Rajanpur", "Shape_Leng": 2.7720337604299998 }, "geometry": { "type": "Point", "coordinates": [ 70.428982056000052, 29.30689174400004 ] } },
    { "type": "Feature", "properties": { "OBJECTID": 2642, "HF_Name": "ISLAM PUR", "HF_Type": "BASIC HEALTH UNIT", "Category": "Other", "Latitude": 29.4300003052, "Longitude": 70.430000305199997, "Functional": "Functional", "Population": 0, "UC_NAME": "Bukhara", "Tehsil": "Jampur", "Province": "Punjab", "District": "Rajanpur", "Shape_Leng": 2.3167620953300001 }, "geometry": { "type": "Point", "coordinates": [ 70.439654690000054, 29.43301245300006 ] } },
    { "type": "Feature", "properties": { "OBJECTID": 2643, "HF_Name": "GADDAI", "HF_Type": "MATERNAL & CHILD HEALTH CENTRE", "Category": "Other", "Latitude": 30.940000534100001, "Longitude": 70.430000305199997, "Functional": "Functional", "Population": 0, "UC_NAME": "Tuman Quaisrani", "Tehsil": "DG_Khan", "Province": "Punjab", "District": "Dera_Ghazi_Khan", "Shape_Leng": 3.9630187889299999 }, "geometry": { "type": "Point", "coordinates": [ 70.434106960000065, 30.94269077000007 ] } },
    { "type": "Feature", "properties": { "OBJECTID": 2644, "HF_Name": "BAGHO BAHAR", "HF_Type": "RURAL HEALTH CENTRE", "Category": "Other", "Latitude": 28.559999465899999, "Longitude": 70.440002441399997, "Functional": "Functional", "Population": 0, "UC_NAME": "Kot Samaba\r\nKot Samaba\r\nKot Samaba\r\nKot Samba", "Tehsil": "Rahim_Yar_Khan", "Province": "Punjab", "District": "Rahim_Yar_Khan", "Shape_Leng": 2.6399806420599998 }, "geometry": { "type": "Point", "coordinates": [ 70.443136770000081, 28.556301240000039 ] } },
    { "type": "Feature", "properties": { "OBJECTID": 2645, "HF_Name": "FAZIL PUR", "HF_Type": "RURAL HEALTH CENTRE", "Category": "Other", "Latitude": 29.2999992371, "Longitude": 70.449996948199995, "Functional": "Functional", "Population": 0, "UC_NAME": "Pir Bux Sharqi", "Tehsil": "Rajanpur", "Province": "Punjab", "District": "Rajanpur", "Shape_Leng": 2.7720337604299998 }, "geometry": { "type": "Point", "coordinates": [ 70.447482234000063, 29.299980337000079 ] } },
    { "type": "Feature", "properties": { "OBJECTID": 2646, "HF_Name": "CHACHRAN SHARIF", "HF_Type": "BASIC HEALTH UNIT", "Category": "Other", "Latitude": 28.8600006104, "Longitude": 70.449996948199995, "Functional": "Functional", "Population": 0, "UC_NAME": "Haji Pur", "Tehsil": "Khanpur", "Province": "Punjab", "District": "Rahim_Yar_Khan", "Shape_Leng": 2.6696519268899999 }, "geometry": { "type": "Point", "coordinates": [ 70.447918132000041, 28.864683226000068 ] } },
    { "type": "Feature", "properties": { "OBJECTID": 2647, "HF_Name": "HAJI PUR", "HF_Type": "BASIC HEALTH UNIT", "Category": "Other", "Latitude": 28.8199996948, "Longitude": 70.449996948199995, "Functional": "Functional", "Population": 0, "UC_NAME": "Haji Pur", "Tehsil": "Rahim_Yar_Khan", "Province": "Punjab", "District": "Rahim_Yar_Khan", "Shape_Leng": 2.6399806420599998 }, "geometry": { "type": "Point", "coordinates": [ 70.452412401000061, 28.814830522000079 ] } },
    { "type": "Feature", "properties": { "OBJECTID": 2648, "HF_Name": "TATAR WALA", "HF_Type": "BASIC HEALTH UNIT", "Category": "Other", "Latitude": 29.3899993896, "Longitude": 70.449996948199995, "Functional": "Functional", "Population": 0, "UC_NAME": "Rakh Fazil Pur", "Tehsil": "Rajanpur", "Province": "Punjab", "District": "Rajanpur", "Shape_Leng": 2.7720337604299998 }, "geometry": { "type": "Point", "coordinates": [ 70.451395341000079, 29.392042569000068 ] } },
    { "type": "Feature", "properties": { "OBJECTID": 2649, "HF_Name": "BANGLA MANTHAR", "HF_Type": "RURAL HEALTH CENTRE", "Category": "Other", "Latitude": 28.229999542200002, "Longitude": 70.449996948199995, "Functional": "Functional", "Population": 0, "UC_NAME": "178/7-R", "Tehsil": "Liaqatpur", "Province": "Punjab", "District": "Rahim_Yar_Khan", "Shape_Leng": 5.8963813334 }, "geometry": { "type": "Point", "coordinates": [ 70.437911289000056, 28.235336732000064 ] } },
    { "type": "Feature", "properties": { "OBJECTID": 2650, "HF_Name": "NOORPUR MINGHO WALA", "HF_Type": "SUB HEALTH CENTRE", "Category": "Other", "Latitude": 29.079999923700001, "Longitude": 70.459999084499998, "Functional": "Functional", "Population": 0, "UC_NAME": "Noor Pur", "Tehsil": "Rajanpur", "Province": "Punjab", "District": "Rajanpur", "Shape_Leng": 2.7720337604299998 }, "geometry": { "type": "Point", "coordinates": [ 70.468579011000031, 29.074500736000061 ] } },
    { "type": "Feature", "properties": { "OBJECTID": 2651, "HF_Name": "MARI", "HF_Type": "BASIC HEALTH UNIT", "Category": "Other", "Latitude": 29.149999618500001, "Longitude": 70.459999084499998, "Functional": "Functional", "Population": 0, "UC_NAME": "Kotla Isan", "Tehsil": "Rajanpur", "Province": "Punjab", "District": "Rajanpur", "Shape_Leng": 2.7720337604299998 }, "geometry": { "type": "Point", "coordinates": [ 70.458900659000051, 29.148663074000069 ] } },
    { "type": "Feature", "properties": { "OBJECTID": 2652, "HF_Name": "KOT SAMABA", "HF_Type": "RURAL HEALTH CENTRE", "Category": "Other", "Latitude": 28.5499992371, "Longitude": 70.470001220699999, "Functional": "Functional", "Population": 0, "UC_NAME": "Kot Samaba\r\nKot Samaba\r\nKot Samaba\r\nKot Samba", "Tehsil": "Rahim_Yar_Khan", "Province": "Punjab", "District": "Rahim_Yar_Khan", "Shape_Leng": 2.6399806420599998 }, "geometry": { "type": "Point", "coordinates": [ 70.466230483000061, 28.549863881000078 ] } },
    { "type": "Feature", "properties": { "OBJECTID": 2653, "HF_Name": "CHUKHAROI", "HF_Type": "SUB HEALTH CENTRE", "Category": "Other", "Latitude": 29.7000007629, "Longitude": 70.470001220699999, "Functional": "Functional", "Population": 0, "UC_NAME": "Jakkar Shah", "Tehsil": "Kot_Chatta", "Province": "Punjab", "District": "Dera_Ghazi_Khan", "Shape_Leng": 2.6145173128399999 }, "geometry": { "type": "Point", "coordinates": [ 70.471890354000038, 29.696421175000069 ] } },
    { "type": "Feature", "properties": { "OBJECTID": 2654, "HF_Name": "MIAN WALI SHAIKHAN", "HF_Type": "BASIC HEALTH UNIT", "Category": "Other", "Latitude": 28.7000007629, "Longitude": 70.470001220699999, "Functional": "Functional", "Population": 0, "UC_NAME": "Ghazi Pur", "Tehsil": "Rahim_Yar_Khan", "Province": "Punjab", "District": "Rahim_Yar_Khan", "Shape_Leng": 2.6399806420599998 }, "geometry": { "type": "Point", "coordinates": [ 70.471346510000046, 28.70387997000006 ] } },
    { "type": "Feature", "properties": { "OBJECTID": 2655, "HF_Name": "KOT MUBARIK", "HF_Type": "BASIC HEALTH UNIT", "Category": "Other", "Latitude": 31.229999542200002, "Longitude": 70.480003356899999, "Functional": "Functional", "Population": 0, "UC_NAME": "Lakhani", "Tehsil": "Taunsa", "Province": "Punjab", "District": "Dera_Ghazi_Khan", "Shape_Leng": 2.70690763114 }, "geometry": { "type": "Point", "coordinates": [ 70.47500203900006, 31.226650330000041 ] } },
    { "type": "Feature", "properties": { "OBJECTID": 2656, "HF_Name": "BUKHARA", "HF_Type": "BASIC HEALTH UNIT", "Category": "Other", "Latitude": 29.4500007629, "Longitude": 70.480003356899999, "Functional": "Functional", "Population": 0, "UC_NAME": "Bukhara", "Tehsil": "Jampur", "Province": "Punjab", "District": "Rajanpur", "Shape_Leng": 2.3167620953300001 }, "geometry": { "type": "Point", "coordinates": [ 70.489791930000081, 29.449361927000041 ] } },
    { "type": "Feature", "properties": { "OBJECTID": 2657, "HF_Name": "BARTHI", "HF_Type": "RURAL HEALTH CENTRE", "Category": "Other", "Latitude": 29.850000381499999, "Longitude": 70.480003356899999, "Functional": "Functional", "Population": 0, "UC_NAME": "Chahar", "Tehsil": "Kot_Chatta", "Province": "Punjab", "District": "Dera_Ghazi_Khan", "Shape_Leng": 2.6145173128399999 }, "geometry": { "type": "Point", "coordinates": [ 70.479767322000043, 29.851728106000053 ] } },
    { "type": "Feature", "properties": { "OBJECTID": 2658, "HF_Name": "LITRA", "HF_Type": "BASIC HEALTH UNIT", "Category": "Other", "Latitude": 31.0499992371, "Longitude": 70.480003356899999, "Functional": "Functional", "Population": 0, "UC_NAME": "Kot Qaisarani", "Tehsil": "Taunsa", "Province": "Punjab", "District": "Dera_Ghazi_Khan", "Shape_Leng": 2.70690763114 }, "geometry": { "type": "Point", "coordinates": [ 70.483642755000062, 31.05092860700006 ] } },
    { "type": "Feature", "properties": { "OBJECTID": 2659, "HF_Name": "D.G. KHAN", "HF_Type": "MATERNAL & CHILD HEALTH CENTRE", "Category": "Other", "Latitude": 29.829999923700001, "Longitude": 70.5, "Functional": "Functional", "Population": 0, "UC_NAME": "Mana Ahamdani", "Tehsil": "Kot_Chatta", "Province": "Punjab", "District": "Dera_Ghazi_Khan", "Shape_Leng": 2.6145173128399999 }, "geometry": { "type": "Point", "coordinates": [ 70.499631993000037, 29.832396456000026 ] } },
    { "type": "Feature", "properties": { "OBJECTID": 2660, "HF_Name": "BAROT MUNDWANI", "HF_Type": "BASIC HEALTH UNIT", "Category": "Other", "Latitude": 30.770000457799998, "Longitude": 70.5, "Functional": "Functional", "Population": 0, "UC_NAME": "Fazila Kach (Part)", "Tehsil": "DG_Khan", "Province": "Punjab", "District": "Dera_Ghazi_Khan", "Shape_Leng": 3.9630187889299999 }, "geometry": { "type": "Point", "coordinates": [ 70.497316581000064, 30.766651406000051 ] } },
    { "type": "Feature", "properties": { "OBJECTID": 2661, "HF_Name": "SHEROO", "HF_Type": "BASIC HEALTH UNIT", "Category": "Other", "Latitude": 30.479999542200002, "Longitude": 70.5, "Functional": "Functional", "Population": 0, "UC_NAME": "Mubarki", "Tehsil": "DG_Khan", "Province": "Punjab", "District": "Dera_Ghazi_Khan", "Shape_Leng": 3.9630187889299999 }, "geometry": { "type": "Point", "coordinates": [ 70.50047169000004, 30.476659970000071 ] } },
    { "type": "Feature", "properties": { "OBJECTID": 2662, "HF_Name": "TIBBI QASRANI", "HF_Type": "RURAL HEALTH CENTRE", "Category": "Other", "Latitude": 31.129999160800001, "Longitude": 70.510002136200001, "Functional": "Functional", "Population": 0, "UC_NAME": "Vehawa", "Tehsil": "Taunsa", "Province": "Punjab", "District": "Dera_Ghazi_Khan", "Shape_Leng": 2.70690763114 }, "geometry": { "type": "Point", "coordinates": [ 70.510825269000065, 31.134320777000028 ] } },
    { "type": "Feature", "properties": { "OBJECTID": 2663, "HF_Name": "ZAHIR PIR", "HF_Type": "RURAL HEALTH CENTRE", "Category": "Other", "Latitude": 28.8199996948, "Longitude": 70.519996643100001, "Functional": "Functional", "Population": 0, "UC_NAME": "Jhoran", "Tehsil": "Khanpur", "Province": "Punjab", "District": "Rahim_Yar_Khan", "Shape_Leng": 2.6696519268899999 }, "geometry": { "type": "Point", "coordinates": [ 70.516011930000047, 28.815935330000059 ] } },
    { "type": "Feature", "properties": { "OBJECTID": 2664, "HF_Name": "THATHA GABOOLAN", "HF_Type": "BASIC HEALTH UNIT", "Category": "Other", "Latitude": 29.879999160800001, "Longitude": 70.519996643100001, "Functional": "Functional", "Population": 0, "UC_NAME": "Mana Ahamdani", "Tehsil": "Kot_Chatta", "Province": "Punjab", "District": "Dera_Ghazi_Khan", "Shape_Leng": 2.6145173128399999 }, "geometry": { "type": "Point", "coordinates": [ 70.512857208000071, 29.881811465000055 ] } },
    { "type": "Feature", "properties": { "OBJECTID": 2665, "HF_Name": "NAWAN SHAHR", "HF_Type": "BASIC HEALTH UNIT", "Category": "Other", "Latitude": 29.8199996948, "Longitude": 70.519996643100001, "Functional": "Functional", "Population": 0, "UC_NAME": "Mana Ahamdani", "Tehsil": "Kot_Chatta", "Province": "Punjab", "District": "Dera_Ghazi_Khan", "Shape_Leng": 2.6145173128399999 }, "geometry": { "type": "Point", "coordinates": [ 70.51625739900004, 29.815233453000076 ] } },
    { "type": "Feature", "properties": { "OBJECTID": 2666, "HF_Name": "MANDANI", "HF_Type": "SUB HEALTH CENTRE", "Category": "Other", "Latitude": 31.2000007629, "Longitude": 70.519996643100001, "Functional": "Functional", "Population": 0, "UC_NAME": "Lakhani", "Tehsil": "Taunsa", "Province": "Punjab", "District": "Dera_Ghazi_Khan", "Shape_Leng": 2.70690763114 }, "geometry": { "type": "Point", "coordinates": [ 70.517567960000065, 31.201496460000044 ] } },
    { "type": "Feature", "properties": { "OBJECTID": 2667, "HF_Name": "RASOOL PUR", "HF_Type": "SUB HEALTH CENTRE", "Category": "Other", "Latitude": 29.5699996948, "Longitude": 70.529998779300001, "Functional": "Functional", "Population": 0, "UC_NAME": "Allah Abad", "Tehsil": "Jampur", "Province": "Punjab", "District": "Rajanpur", "Shape_Leng": 2.3167620953300001 }, "geometry": { "type": "Point", "coordinates": [ 70.536325199000032, 29.578239386000064 ] } },
    { "type": "Feature", "properties": { "OBJECTID": 2668, "HF_Name": "TIBBI GUL MUHAMMAD", "HF_Type": "BASIC HEALTH UNIT", "Category": "Other", "Latitude": 28.690000534100001, "Longitude": 70.529998779300001, "Functional": "Functional", "Population": 0, "UC_NAME": "Garhi Ikhtiar Khan", "Tehsil": "Khanpur", "Province": "Punjab", "District": "Rahim_Yar_Khan", "Shape_Leng": 2.6696519268899999 }, "geometry": { "type": "Point", "coordinates": [ 70.528940467000041, 28.687572166000052 ] } },
    { "type": "Feature", "properties": { "OBJECTID": 2669, "HF_Name": "GHARI IKHTAR KHAN", "HF_Type": "BASIC HEALTH UNIT", "Category": "Other", "Latitude": 28.670000076299999, "Longitude": 70.529998779300001, "Functional": "Functional", "Population": 0, "UC_NAME": "Garhi Ikhtiar Khan", "Tehsil": "Khanpur", "Province": "Punjab", "District": "Rahim_Yar_Khan", "Shape_Leng": 2.6696519268899999 }, "geometry": { "type": "Point", "coordinates": [ 70.528141113000061, 28.666756297000063 ] } },
    { "type": "Feature", "properties": { "OBJECTID": 2670, "HF_Name": "JHOOK BODO", "HF_Type": "BASIC HEALTH UNIT", "Category": "Other", "Latitude": 30.920000076299999, "Longitude": 70.540000915500002, "Functional": "Functional", "Population": 0, "UC_NAME": "Sokar", "Tehsil": "Taunsa", "Province": "Punjab", "District": "Dera_Ghazi_Khan", "Shape_Leng": 2.70690763114 }, "geometry": { "type": "Point", "coordinates": [ 70.534592251000049, 30.917375255000024 ] } },
    { "type": "Feature", "properties": { "OBJECTID": 2671, "HF_Name": "WADOOR", "HF_Type": "BASIC HEALTH UNIT", "Category": "Other", "Latitude": 30.079999923700001, "Longitude": 70.540000915500002, "Functional": "Functional", "Population": 0, "UC_NAME": "Gadai", "Tehsil": "Dera_Ghazi_Khan", "Province": "Punjab", "District": "Dera_Ghazi_Khan", "Shape_Leng": 2.4136382845800002 }, "geometry": { "type": "Point", "coordinates": [ 70.540586050000059, 30.07931117000004 ] } },
    { "type": "Feature", "properties": { "OBJECTID": 2672, "HF_Name": "BASTI SARDAR", "HF_Type": "SUB HEALTH CENTRE", "Category": "Other", "Latitude": 29.0499992371, "Longitude": 70.550003051800005, "Functional": "Functional", "Population": 0, "UC_NAME": "Noor Pur", "Tehsil": "Rajanpur", "Province": "Punjab", "District": "Rajanpur", "Shape_Leng": 2.7720337604299998 }, "geometry": { "type": "Point", "coordinates": [ 70.551590519000058, 29.052226500000074 ] } },
    { "type": "Feature", "properties": { "OBJECTID": 2673, "HF_Name": "HAZRAT WALA", "HF_Type": "BASIC HEALTH UNIT", "Category": "Other", "Latitude": 29.3600006104, "Longitude": 70.550003051800005, "Functional": "Functional", "Population": 0, "UC_NAME": "Rekh Baghwala", "Tehsil": "Rajanpur", "Province": "Punjab", "District": "Rajanpur", "Shape_Leng": 2.7720337604299998 }, "geometry": { "type": "Point", "coordinates": [ 70.546892242000069, 29.357059879000076 ] } },
    { "type": "Feature", "properties": { "OBJECTID": 2674, "HF_Name": "KOT QASRANI", "HF_Type": "BASIC HEALTH UNIT", "Category": "Other", "Latitude": 30.7999992371, "Longitude": 70.550003051800005, "Functional": "Functional", "Population": 0, "UC_NAME": "Sokar", "Tehsil": "Taunsa", "Province": "Punjab", "District": "Dera_Ghazi_Khan", "Shape_Leng": 2.70690763114 }, "geometry": { "type": "Point", "coordinates": [ 70.549983466000072, 30.799948414000028 ] } },
    { "type": "Feature", "properties": { "OBJECTID": 2675, "HF_Name": "RIKH BAGHWALA", "HF_Type": "SUB HEALTH CENTRE", "Category": "Other", "Latitude": 29.409999847400002, "Longitude": 70.559997558600003, "Functional": "Functional", "Population": 0, "UC_NAME": "Rekh Baghwala", "Tehsil": "Rajanpur", "Province": "Punjab", "District": "Rajanpur", "Shape_Leng": 2.7720337604299998 }, "geometry": { "type": "Point", "coordinates": [ 70.558132049000051, 29.410066870000037 ] } },
    { "type": "Feature", "properties": { "OBJECTID": 2676, "HF_Name": "MEMORI", "HF_Type": "BASIC HEALTH UNIT", "Category": "Other", "Latitude": 29.909999847400002, "Longitude": 70.559997558600003, "Functional": "Functional", "Population": 0, "UC_NAME": "Basti Malana", "Tehsil": "Kot_Chatta", "Province": "Punjab", "District": "Dera_Ghazi_Khan", "Shape_Leng": 2.6145173128399999 }, "geometry": { "type": "Point", "coordinates": [ 70.563660378000066, 29.914758863000031 ] } },
    { "type": "Feature", "properties": { "OBJECTID": 2677, "HF_Name": "LAKHANI", "HF_Type": "BASIC HEALTH UNIT", "Category": "Other", "Latitude": 30.959999084500001, "Longitude": 70.569999694800003, "Functional": "Functional", "Population": 0, "UC_NAME": "Mangrotha", "Tehsil": "Taunsa", "Province": "Punjab", "District": "Dera_Ghazi_Khan", "Shape_Leng": 2.70690763114 }, "geometry": { "type": "Point", "coordinates": [ 70.56435980100008, 30.964731646000075 ] } },
    { "type": "Feature", "properties": { "OBJECTID": 2678, "HF_Name": "LANGI WAAR", "HF_Type": "BASIC HEALTH UNIT", "Category": "Other", "Latitude": 28.879999160800001, "Longitude": 70.569999694800003, "Functional": "Functional", "Population": 0, "UC_NAME": "Chachran Sharif", "Tehsil": "Khanpur", "Province": "Punjab", "District": "Rahim_Yar_Khan", "Shape_Leng": 2.6696519268899999 }, "geometry": { "type": "Point", "coordinates": [ 70.56677404900006, 28.880514497000036 ] } },
    { "type": "Feature", "properties": { "OBJECTID": 2679, "HF_Name": "HERO SHARKI", "HF_Type": "SUB HEALTH CENTRE", "Category": "Other", "Latitude": 29.760000228900001, "Longitude": 70.569999694800003, "Functional": "Functional", "Population": 0, "UC_NAME": "Jakkar Shah", "Tehsil": "Kot_Chatta", "Province": "Punjab", "District": "Dera_Ghazi_Khan", "Shape_Leng": 2.6145173128399999 }, "geometry": { "type": "Point", "coordinates": [ 70.565625326000031, 29.758883603000072 ] } },
    { "type": "Feature", "properties": { "OBJECTID": 2680, "HF_Name": "SEHJA.", "HF_Type": "RURAL HEALTH CENTRE", "Category": "Other", "Latitude": 28.579999923700001, "Longitude": 70.569999694800003, "Functional": "Functional", "Population": 0, "UC_NAME": "Zahirpir", "Tehsil": "Khanpur", "Province": "Punjab", "District": "Rahim_Yar_Khan", "Shape_Leng": 2.6696519268899999 }, "geometry": { "type": "Point", "coordinates": [ 70.567310816000031, 28.584286846000055 ] } },
    { "type": "Feature", "properties": { "OBJECTID": 2681, "HF_Name": "KHANPUR", "HF_Type": "BASIC HEALTH UNIT", "Category": "Other", "Latitude": 29.75, "Longitude": 70.569999694800003, "Functional": "Functional", "Population": 0, "UC_NAME": "Jakkar Shah", "Tehsil": "Kot_Chatta", "Province": "Punjab", "District": "Dera_Ghazi_Khan", "Shape_Leng": 2.6145173128399999 }, "geometry": { "type": "Point", "coordinates": [ 70.568058650000069, 29.750025440000059 ] } },
    { "type": "Feature", "properties": { "OBJECTID": 2682, "HF_Name": "MASTOOI WALA", "HF_Type": "DISPENSARY", "Category": "Other", "Latitude": 29.530000686600001, "Longitude": 70.580001831100006, "Functional": "Functional", "Population": 0, "UC_NAME": "Kotla Mughlan", "Tehsil": "Jampur", "Province": "Punjab", "District": "Rajanpur", "Shape_Leng": 2.3167620953300001 }, "geometry": { "type": "Point", "coordinates": [ 70.57892225300003, 29.531767179000042 ] } },
    { "type": "Feature", "properties": { "OBJECTID": 2683, "HF_Name": "BURREY WALA", "HF_Type": "BASIC HEALTH UNIT", "Category": "Other", "Latitude": 29.5, "Longitude": 70.580001831100006, "Functional": "Functional", "Population": 0, "UC_NAME": "Kotla Mughlan", "Tehsil": "Jampur", "Province": "Punjab", "District": "Rajanpur", "Shape_Leng": 2.3167620953300001 }, "geometry": { "type": "Point", "coordinates": [ 70.579606775000059, 29.502736466000044 ] } },
    { "type": "Feature", "properties": { "OBJECTID": 2684, "HF_Name": "MAKHAN BELA", "HF_Type": "SUB HEALTH CENTRE", "Category": "Other", "Latitude": 28.7999992371, "Longitude": 70.580001831100006, "Functional": "Functional", "Population": 0, "UC_NAME": "Jhoran", "Tehsil": "Khanpur", "Province": "Punjab", "District": "Rahim_Yar_Khan", "Shape_Leng": 2.6696519268899999 }, "geometry": { "type": "Point", "coordinates": [ 70.583310496000081, 28.799435239000047 ] } },
    { "type": "Feature", "properties": { "OBJECTID": 2685, "HF_Name": "MANA AHMADANI", "HF_Type": "BASIC HEALTH UNIT", "Category": "Other", "Latitude": 29.7999992371, "Longitude": 70.580001831100006, "Functional": "Functional", "Population": 0, "UC_NAME": "Jakkar Shah", "Tehsil": "Kot_Chatta", "Province": "Punjab", "District": "Dera_Ghazi_Khan", "Shape_Leng": 2.6145173128399999 }, "geometry": { "type": "Point", "coordinates": [ 70.583285232000037, 29.798182322000059 ] } },
    { "type": "Feature", "properties": { "OBJECTID": 2686, "HF_Name": "KHANPUR", "HF_Type": "SUB HEALTH CENTRE", "Category": "Other", "Latitude": 31.170000076299999, "Longitude": 70.580001831100006, "Functional": "Functional", "Population": 0, "UC_NAME": "Vehawa", "Tehsil": "Taunsa", "Province": "Punjab", "District": "Dera_Ghazi_Khan", "Shape_Leng": 2.70690763114 }, "geometry": { "type": "Point", "coordinates": [ 70.586520156000063, 31.165410811000072 ] } },
    { "type": "Feature", "properties": { "OBJECTID": 2687, "HF_Name": "MANGROOTHA", "HF_Type": "BASIC HEALTH UNIT", "Category": "Other", "Latitude": 30.719999313399999, "Longitude": 70.580001831100006, "Functional": "Functional", "Population": 0, "UC_NAME": "Sokar", "Tehsil": "Taunsa", "Province": "Punjab", "District": "Dera_Ghazi_Khan", "Shape_Leng": 2.70690763114 }, "geometry": { "type": "Point", "coordinates": [ 70.583489760000077, 30.716062167000075 ] } },
    { "type": "Feature", "properties": { "OBJECTID": 2688, "HF_Name": "BASTI JAM", "HF_Type": "BASIC HEALTH UNIT", "Category": "Other", "Latitude": 29.850000381499999, "Longitude": 70.589996337900004, "Functional": "Functional", "Population": 0, "UC_NAME": "Mana Ahamdani", "Tehsil": "Kot_Chatta", "Province": "Punjab", "District": "Dera_Ghazi_Khan", "Shape_Leng": 2.6145173128399999 }, "geometry": { "type": "Point", "coordinates": [ 70.586035436000031, 29.85194935800007 ] } },
    { "type": "Feature", "properties": { "OBJECTID": 2689, "HF_Name": "0BASTI BOHAR", "HF_Type": "SUB HEALTH CENTRE", "Category": "Other", "Latitude": 29.8600006104, "Longitude": 70.589996337900004, "Functional": "Functional", "Population": 0, "UC_NAME": "Basti Malana", "Tehsil": "Kot_Chatta", "Province": "Punjab", "District": "Dera_Ghazi_Khan", "Shape_Leng": 2.6145173128399999 }, "geometry": { "type": "Point", "coordinates": [ 70.585789539000075, 29.859552096000073 ] } },
    { "type": "Feature", "properties": { "OBJECTID": 2690, "HF_Name": "JAMPUR", "HF_Type": "DISPENSARY", "Category": "Other", "Latitude": 29.629999160800001, "Longitude": 70.589996337900004, "Functional": "Functional", "Population": 0, "UC_NAME": "Kotla Dewan", "Tehsil": "Jampur", "Province": "Punjab", "District": "Rajanpur", "Shape_Leng": 2.3167620953300001 }, "geometry": { "type": "Point", "coordinates": [ 70.589927980000084, 29.631966400000067 ] } },
    { "type": "Feature", "properties": { "OBJECTID": 2691, "HF_Name": "KOTLA DIWAN", "HF_Type": "BASIC HEALTH UNIT", "Category": "Other", "Latitude": 29.579999923700001, "Longitude": 70.589996337900004, "Functional": "Functional", "Population": 0, "UC_NAME": "Kotla Mughlan", "Tehsil": "Jampur", "Province": "Punjab", "District": "Rajanpur", "Shape_Leng": 2.3167620953300001 }, "geometry": { "type": "Point", "coordinates": [ 70.590545930000076, 29.581604120000065 ] } },
    { "type": "Feature", "properties": { "OBJECTID": 2692, "HF_Name": "JAMPUR", "HF_Type": "MATERNAL & CHILD HEALTH CENTRE", "Category": "Other", "Latitude": 29.6399993896, "Longitude": 70.589996337900004, "Functional": "Functional", "Population": 0, "UC_NAME": "Tatar Wala", "Tehsil": "Jampur", "Province": "Punjab", "District": "Rajanpur", "Shape_Leng": 2.3167620953300001 }, "geometry": { "type": "Point", "coordinates": [ 70.590086459000077, 29.643217334000042 ] } },
    { "type": "Feature", "properties": { "OBJECTID": 2693, "HF_Name": "JAMPUR", "HF_Type": "DISPENSARY", "Category": "Other", "Latitude": 29.6399993896, "Longitude": 70.589996337900004, "Functional": "Functional", "Population": 0, "UC_NAME": "Kotla Dewan", "Tehsil": "Jampur", "Province": "Punjab", "District": "Rajanpur", "Shape_Leng": 2.3167620953300001 }, "geometry": { "type": "Point", "coordinates": [ 70.593017690000067, 29.636291990000075 ] } },
    { "type": "Feature", "properties": { "OBJECTID": 2694, "HF_Name": "LOHAR WALA", "HF_Type": "BASIC HEALTH UNIT", "Category": "Other", "Latitude": 29.959999084500001, "Longitude": 70.599998474100005, "Functional": "Functional", "Population": 0, "UC_NAME": "Paigah", "Tehsil": "Kot_Chatta", "Province": "Punjab", "District": "Dera_Ghazi_Khan", "Shape_Leng": 2.6145173128399999 }, "geometry": { "type": "Point", "coordinates": [ 70.596768993000069, 29.956781286000023 ] } },
    { "type": "Feature", "properties": { "OBJECTID": 2695, "HF_Name": "KOT BWTTA", "HF_Type": "SUB HEALTH CENTRE", "Category": "Other", "Latitude": 29.829999923700001, "Longitude": 70.599998474100005, "Functional": "Functional", "Population": 0, "UC_NAME": "Mana Ahamdani", "Tehsil": "Kot_Chatta", "Province": "Punjab", "District": "Dera_Ghazi_Khan", "Shape_Leng": 2.6145173128399999 }, "geometry": { "type": "Point", "coordinates": [ 70.597651006000035, 29.831996557000025 ] } },
    { "type": "Feature", "properties": { "OBJECTID": 2696, "HF_Name": "KOTLA MUGHLAN", "HF_Type": "BASIC HEALTH UNIT", "Category": "Other", "Latitude": 29.540000915499999, "Longitude": 70.599998474100005, "Functional": "Functional", "Population": 0, "UC_NAME": "Kotla Mughlan", "Tehsil": "Jampur", "Province": "Punjab", "District": "Rajanpur", "Shape_Leng": 2.3167620953300001 }, "geometry": { "type": "Point", "coordinates": [ 70.599169952000068, 29.541161432000024 ] } },
    { "type": "Feature", "properties": { "OBJECTID": 2697, "HF_Name": "MOHAI", "HF_Type": "BASIC HEALTH UNIT", "Category": "Other", "Latitude": 30.5499992371, "Longitude": 70.599998474100005, "Functional": "Functional", "Population": 0, "UC_NAME": "Makwal Kalan", "Tehsil": "Taunsa", "Province": "Punjab", "District": "Dera_Ghazi_Khan", "Shape_Leng": 2.70690763114 }, "geometry": { "type": "Point", "coordinates": [ 70.600319960000036, 30.548758200000066 ] } },
    { "type": "Feature", "properties": { "OBJECTID": 2698, "HF_Name": "KOTLA PATHAN", "HF_Type": "BASIC HEALTH UNIT", "Category": "Other", "Latitude": 28.719999313399999, "Longitude": 70.599998474100005, "Functional": "Functional", "Population": 0, "UC_NAME": "Kotla Pathan", "Tehsil": "Khanpur", "Province": "Punjab", "District": "Rahim_Yar_Khan", "Shape_Leng": 2.6696519268899999 }, "geometry": { "type": "Point", "coordinates": [ 70.602543882000077, 28.715156277000062 ] } },
    { "type": "Feature", "properties": { "OBJECTID": 2699, "HF_Name": "SOKAR", "HF_Type": "BASIC HEALTH UNIT", "Category": "Other", "Latitude": 30.649999618500001, "Longitude": 70.599998474100005, "Functional": "Functional", "Population": 0, "UC_NAME": "Sokar", "Tehsil": "Taunsa", "Province": "Punjab", "District": "Dera_Ghazi_Khan", "Shape_Leng": 2.70690763114 }, "geometry": { "type": "Point", "coordinates": [ 70.602926613000079, 30.648220125000023 ] } },
    { "type": "Feature", "properties": { "OBJECTID": 2700, "HF_Name": "JAM PUR", "HF_Type": "BASIC HEALTH UNIT", "Category": "Other", "Latitude": 29.6399993896, "Longitude": 70.599998474100005, "Functional": "Functional", "Population": 0, "UC_NAME": "Kotla Dewan", "Tehsil": "Jampur", "Province": "Punjab", "District": "Rajanpur", "Shape_Leng": 2.3167620953300001 }, "geometry": { "type": "Point", "coordinates": [ 70.60352271000005, 29.644634210000049 ] } },
    { "type": "Feature", "properties": { "OBJECTID": 2701, "HF_Name": "JAMPUR", "HF_Type": "BASIC HEALTH UNIT", "Category": "Other", "Latitude": 29.6399993896, "Longitude": 70.599998474100005, "Functional": "Functional", "Population": 0, "UC_NAME": "Kotla Dewan", "Tehsil": "Jampur", "Province": "Punjab", "District": "Rajanpur", "Shape_Leng": 2.3167620953300001 }, "geometry": { "type": "Point", "coordinates": [ 70.604630279000048, 29.640064561000031 ] } },
    { "type": "Feature", "properties": { "OBJECTID": 2702, "HF_Name": "DG.KHAN DHQ HOSPITAL", "HF_Type": "MATERNAL & CHILD HEALTH CENTRE", "Category": "Other", "Latitude": 30.020000457799998, "Longitude": 70.610000610399993, "Functional": "Functional", "Population": 0, "UC_NAME": "Paigah", "Tehsil": "Dera_Ghazi_Khan", "Province": "Punjab", "District": "Dera_Ghazi_Khan", "Shape_Leng": 2.4136382845800002 }, "geometry": { "type": "Point", "coordinates": [ 70.61011755100003, 30.014610047000076 ] } },
    { "type": "Feature", "properties": { "OBJECTID": 2703, "HF_Name": "KOT HAIBAT", "HF_Type": "BASIC HEALTH UNIT", "Category": "Other", "Latitude": 30.100000381499999, "Longitude": 70.620002746599994, "Functional": "Functional", "Population": 0, "UC_NAME": "Kot Haibat", "Tehsil": "Dera_Ghazi_Khan", "Province": "Punjab", "District": "Dera_Ghazi_Khan", "Shape_Leng": 2.4136382845800002 }, "geometry": { "type": "Point", "coordinates": [ 70.617029253000055, 30.099295465000068 ] } },
    { "type": "Feature", "properties": { "OBJECTID": 2704, "HF_Name": "YAROO", "HF_Type": "BASIC HEALTH UNIT", "Category": "Other", "Latitude": 30.170000076299999, "Longitude": 70.620002746599994, "Functional": "Functional", "Population": 0, "UC_NAME": "Chabri", "Tehsil": "Dera_Ghazi_Khan", "Province": "Punjab", "District": "Dera_Ghazi_Khan", "Shape_Leng": 2.4136382845800002 }, "geometry": { "type": "Point", "coordinates": [ 70.622760170000049, 30.174548870000024 ] } },
    { "type": "Feature", "properties": { "OBJECTID": 2705, "HF_Name": "SEET PUR", "HF_Type": "RURAL HEALTH CENTRE", "Category": "Other", "Latitude": 29.090000152599998, "Longitude": 70.629997253400006, "Functional": "Functional", "Population": 0, "UC_NAME": "Khangarh Dona", "Tehsil": "Alipur", "Province": "Punjab", "District": "Muzaffargarh", "Shape_Leng": 2.2035724813000002 }, "geometry": { "type": "Point", "coordinates": [ 70.615400903000079, 29.090140592000068 ] } },
    { "type": "Feature", "properties": { "OBJECTID": 2706, "HF_Name": "DIN PUR SHARIF", "HF_Type": "BASIC HEALTH UNIT", "Category": "Other", "Latitude": 28.659999847400002, "Longitude": 70.629997253400006, "Functional": "Functional", "Population": 0, "UC_NAME": "Khanpur -2", "Tehsil": "Khanpur", "Province": "Punjab", "District": "Rahim_Yar_Khan", "Shape_Leng": 2.6696519268899999 }, "geometry": { "type": "Point", "coordinates": [ 70.628589690000069, 28.661042960000032 ] } },
    { "type": "Feature", "properties": { "OBJECTID": 2707, "HF_Name": "LOHARWALA", "HF_Type": "SUB HEALTH CENTRE", "Category": "Other", "Latitude": 30.420000076299999, "Longitude": 70.629997253400006, "Functional": "Functional", "Population": 0, "UC_NAME": "Shadan Lund", "Tehsil": "Dera_Ghazi_Khan", "Province": "Punjab", "District": "Dera_Ghazi_Khan", "Shape_Leng": 2.4136382845800002 }, "geometry": { "type": "Point", "coordinates": [ 70.628438585000083, 30.422022952000077 ] } },
    { "type": "Feature", "properties": { "OBJECTID": 2708, "HF_Name": "DG. KHAN", "HF_Type": "TB CLINIC", "Category": "Other", "Latitude": 30.059999465899999, "Longitude": 70.629997253400006, "Functional": "Functional", "Population": 0, "UC_NAME": "Paigah", "Tehsil": "Dera_Ghazi_Khan", "Province": "Punjab", "District": "Dera_Ghazi_Khan", "Shape_Leng": 2.4136382845800002 }, "geometry": { "type": "Point", "coordinates": [ 70.629032966000068, 30.057290457000079 ] } },
    { "type": "Feature", "properties": { "OBJECTID": 2709, "HF_Name": "KOT TAHIR", "HF_Type": "BASIC HEALTH UNIT", "Category": "Other", "Latitude": 29.729999542200002, "Longitude": 70.629997253400006, "Functional": "Functional", "Population": 0, "UC_NAME": "Bsti Rindan", "Tehsil": "Jampur", "Province": "Punjab", "District": "Rajanpur", "Shape_Leng": 2.3167620953300001 }, "geometry": { "type": "Point", "coordinates": [ 70.636260036000067, 29.740116320000027 ] } },
    { "type": "Feature", "properties": { "OBJECTID": 2710, "HF_Name": "DG.KHAN DHQHOSPITAL", "HF_Type": "HOSPITAL", "Category": "Other", "Latitude": 30.059999465899999, "Longitude": 70.629997253400006, "Functional": "Functional", "Population": 0, "UC_NAME": "Paigah", "Tehsil": "Dera_Ghazi_Khan", "Province": "Punjab", "District": "Dera_Ghazi_Khan", "Shape_Leng": 2.4136382845800002 }, "geometry": { "type": "Point", "coordinates": [ 70.632452500000056, 30.058240880000028 ] } },
    { "type": "Feature", "properties": { "OBJECTID": 2711, "HF_Name": "ARA JAFFAR", "HF_Type": "SUB HEALTH CENTRE", "Category": "Other", "Latitude": 30.1800003052, "Longitude": 70.629997253400006, "Functional": "Functional", "Population": 0, "UC_NAME": "Chabri", "Tehsil": "Dera_Ghazi_Khan", "Province": "Punjab", "District": "Dera_Ghazi_Khan", "Shape_Leng": 2.4136382845800002 }, "geometry": { "type": "Point", "coordinates": [ 70.633782097000051, 30.175955786000031 ] } },
    { "type": "Feature", "properties": { "OBJECTID": 2712, "HF_Name": "NARI", "HF_Type": "BASIC HEALTH UNIT", "Category": "Other", "Latitude": 29.959999084500001, "Longitude": 70.650001525899995, "Functional": "Functional", "Population": 0, "UC_NAME": "Ali Wala", "Tehsil": "Kot_Chatta", "Province": "Punjab", "District": "Dera_Ghazi_Khan", "Shape_Leng": 2.6145173128399999 }, "geometry": { "type": "Point", "coordinates": [ 70.64583783300003, 29.958886309000036 ] } },
    { "type": "Feature", "properties": { "OBJECTID": 2713, "HF_Name": "CHOTI ZARIN", "HF_Type": "RURAL HEALTH CENTRE", "Category": "Other", "Latitude": 29.8899993896, "Longitude": 70.650001525899995, "Functional": "Functional", "Population": 0, "UC_NAME": "Nautak", "Tehsil": "Kot_Chatta", "Province": "Punjab", "District": "Dera_Ghazi_Khan", "Shape_Leng": 2.6145173128399999 }, "geometry": { "type": "Point", "coordinates": [ 70.648887320000028, 29.886307330000079 ] } },
    { "type": "Feature", "properties": { "OBJECTID": 2714, "HF_Name": "SHAH JAMAL", "HF_Type": "RURAL HEALTH CENTRE", "Category": "Other", "Latitude": 29.149999618500001, "Longitude": 70.650001525899995, "Functional": "Functional", "Population": 0, "UC_NAME": "Khangarh Dona", "Tehsil": "Alipur", "Province": "Punjab", "District": "Muzaffargarh", "Shape_Leng": 2.2035724813000002 }, "geometry": { "type": "Point", "coordinates": [ 70.642862063000052, 29.148610799000039 ] } },
    { "type": "Feature", "properties": { "OBJECTID": 2715, "HF_Name": "SAKHI SARWAR", "HF_Type": "MATERNAL & CHILD HEALTH CENTRE", "Category": "Other", "Latitude": 30.7000007629, "Longitude": 70.650001525899995, "Functional": "Functional", "Population": 0, "UC_NAME": "Sokar", "Tehsil": "Taunsa", "Province": "Punjab", "District": "Dera_Ghazi_Khan", "Shape_Leng": 2.70690763114 }, "geometry": { "type": "Point", "coordinates": [ 70.649552850000077, 30.698527730000023 ] } },
    { "type": "Feature", "properties": { "OBJECTID": 2716, "HF_Name": "KHAN PUR", "HF_Type": "MATERNAL & CHILD HEALTH CENTRE", "Category": "Other", "Latitude": 28.6399993896, "Longitude": 70.650001525899995, "Functional": "Functional", "Population": 0, "UC_NAME": "Khanpur -3", "Tehsil": "Khanpur", "Province": "Punjab", "District": "Rahim_Yar_Khan", "Shape_Leng": 2.6696519268899999 }, "geometry": { "type": "Point", "coordinates": [ 70.651053, 28.643281270000045 ] } },
    { "type": "Feature", "properties": { "OBJECTID": 2717, "HF_Name": null, "HF_Type": "HOSPITAL", "Category": "Other", "Latitude": 28.6399993896, "Longitude": 70.650001525899995, "Functional": "Functional", "Population": 0, "UC_NAME": "Khanpur -3", "Tehsil": "Khanpur", "Province": "Punjab", "District": "Rahim_Yar_Khan", "Shape_Leng": 2.6696519268899999 }, "geometry": { "type": "Point", "coordinates": [ 70.654448620000039, 28.639885660000061 ] } },
    { "type": "Feature", "properties": { "OBJECTID": 2718, "HF_Name": "ZAFAR ABAD", "HF_Type": "BASIC HEALTH UNIT", "Category": "Other", "Latitude": 28.899999618500001, "Longitude": 70.660003662099996, "Functional": "Functional", "Population": 0, "UC_NAME": "Zaffar Abad", "Tehsil": "Liaqatpur", "Province": "Punjab", "District": "Rahim_Yar_Khan", "Shape_Leng": 5.8963813334 }, "geometry": { "type": "Point", "coordinates": [ 70.654278268000041, 28.906333816000028 ] } },
    { "type": "Feature", "properties": { "OBJECTID": 2719, "HF_Name": "PAK RAILWAYHOSPITAL*", "HF_Type": "HOSPITAL", "Category": "Other", "Latitude": 28.649999618500001, "Longitude": 70.660003662099996, "Functional": "Functional", "Population": 0, "UC_NAME": "Dinpur Sharif", "Tehsil": "Khanpur", "Province": "Punjab", "District": "Rahim_Yar_Khan", "Shape_Leng": 2.6696519268899999 }, "geometry": { "type": "Point", "coordinates": [ 70.657504478000078, 28.650497811000037 ] } },
    { "type": "Feature", "properties": { "OBJECTID": 2720, "HF_Name": "KHAN PUR", "HF_Type": "MATERNAL & CHILD HEALTH CENTRE", "Category": "Other", "Latitude": 28.6399993896, "Longitude": 70.660003662099996, "Functional": "Functional", "Population": 0, "UC_NAME": "Dinpur Sharif", "Tehsil": "Khanpur", "Province": "Punjab", "District": "Rahim_Yar_Khan", "Shape_Leng": 2.6696519268899999 }, "geometry": { "type": "Point", "coordinates": [ 70.657321830000058, 28.639885660000061 ] } },
    { "type": "Feature", "properties": { "OBJECTID": 2721, "HF_Name": "CHAK NO. 9/P", "HF_Type": "SUB HEALTH CENTRE", "Category": "Other", "Latitude": 28.559999465899999, "Longitude": 70.660003662099996, "Functional": "Functional", "Population": 0, "UC_NAME": "Mad Bahora", "Tehsil": "Khanpur", "Province": "Punjab", "District": "Rahim_Yar_Khan", "Shape_Leng": 2.6696519268899999 }, "geometry": { "type": "Point", "coordinates": [ 70.66478941400004, 28.564646700000026 ] } },
    { "type": "Feature", "properties": { "OBJECTID": 2722, "HF_Name": "NAWAN KOT", "HF_Type": "RURAL HEALTH CENTRE", "Category": "Other", "Latitude": 28.809999465899999, "Longitude": 70.669998168899994, "Functional": "Functional", "Population": 0, "UC_NAME": "Nawan Kot", "Tehsil": "Khanpur", "Province": "Punjab", "District": "Rahim_Yar_Khan", "Shape_Leng": 2.6696519268899999 }, "geometry": { "type": "Point", "coordinates": [ 70.66666170600007, 28.804481434000024 ] } },
    { "type": "Feature", "properties": { "OBJECTID": 2723, "HF_Name": "THARI", "HF_Type": "SUB HEALTH CENTRE", "Category": "Other", "Latitude": 31.0699996948, "Longitude": 70.669998168899994, "Functional": "Functional", "Population": 0, "UC_NAME": "Tibbi Quaserani", "Tehsil": "Taunsa", "Province": "Punjab", "District": "Dera_Ghazi_Khan", "Shape_Leng": 2.70690763114 }, "geometry": { "type": "Point", "coordinates": [ 70.66708798600007, 31.073024446000034 ] } },
    { "type": "Feature", "properties": { "OBJECTID": 2724, "HF_Name": "KHAN PUR NAURAKKA", "HF_Type": "BASIC HEALTH UNIT", "Category": "Other", "Latitude": 29.120000839199999, "Longitude": 70.669998168899994, "Functional": "Functional", "Population": 0, "UC_NAME": "Khangarh Dona", "Tehsil": "Alipur", "Province": "Punjab", "District": "Muzaffargarh", "Shape_Leng": 2.2035724813000002 }, "geometry": { "type": "Point", "coordinates": [ 70.657318779000036, 29.121866836000038 ] } },
    { "type": "Feature", "properties": { "OBJECTID": 2725, "HF_Name": "SHAHDAN LUND", "HF_Type": "RURAL HEALTH CENTRE", "Category": "Other", "Latitude": 31.0, "Longitude": 70.680000305199997, "Functional": "Functional", "Population": 0, "UC_NAME": "Harri Shuwali", "Tehsil": "Taunsa", "Province": "Punjab", "District": "Dera_Ghazi_Khan", "Shape_Leng": 2.70690763114 }, "geometry": { "type": "Point", "coordinates": [ 70.683518011000046, 31.002776163000078 ] } },
    { "type": "Feature", "properties": { "OBJECTID": 2726, "HF_Name": "JALBANI", "HF_Type": "DISPENSARY", "Category": "Other", "Latitude": 29.850000381499999, "Longitude": 70.690002441399997, "Functional": "Functional", "Population": 0, "UC_NAME": "Jhok Utra", "Tehsil": "Kot_Chatta", "Province": "Punjab", "District": "Dera_Ghazi_Khan", "Shape_Leng": 2.6145173128399999 }, "geometry": { "type": "Point", "coordinates": [ 70.692405098000052, 29.846048935000056 ] } },
    { "type": "Feature", "properties": { "OBJECTID": 2727, "HF_Name": "ARA JAFAR", "HF_Type": "BASIC HEALTH UNIT", "Category": "Other", "Latitude": 29.790000915499999, "Longitude": 70.690002441399997, "Functional": "Functional", "Population": 0, "UC_NAME": "Jakkar Shah", "Tehsil": "Kot_Chatta", "Province": "Punjab", "District": "Dera_Ghazi_Khan", "Shape_Leng": 2.6145173128399999 }, "geometry": { "type": "Point", "coordinates": [ 70.69316301300006, 29.793885085000056 ] } },
    { "type": "Feature", "properties": { "OBJECTID": 2728, "HF_Name": "VEHOVA", "HF_Type": "RURAL HEALTH CENTRE", "Category": "Other", "Latitude": 29.7999992371, "Longitude": 70.699996948199995, "Functional": "Functional", "Population": 0, "UC_NAME": "Jakkar Shah", "Tehsil": "Kot_Chatta", "Province": "Punjab", "District": "Dera_Ghazi_Khan", "Shape_Leng": 2.6145173128399999 }, "geometry": { "type": "Point", "coordinates": [ 70.696899846000065, 29.800313061000054 ] } },
    { "type": "Feature", "properties": { "OBJECTID": 2729, "HF_Name": "CHABRI ZARIN", "HF_Type": "BASIC HEALTH UNIT", "Category": "Other", "Latitude": 30.1399993896, "Longitude": 70.699996948199995, "Functional": "Functional", "Population": 0, "UC_NAME": "Rahma", "Tehsil": "Dera_Ghazi_Khan", "Province": "Punjab", "District": "Dera_Ghazi_Khan", "Shape_Leng": 2.4136382845800002 }, "geometry": { "type": "Point", "coordinates": [ 70.696079246000068, 30.137728202000062 ] } },
    { "type": "Feature", "properties": { "OBJECTID": 2730, "HF_Name": "PHUGLOO", "HF_Type": "SUB HEALTH CENTRE", "Category": "Other", "Latitude": 30.270000457799998, "Longitude": 70.699996948199995, "Functional": "Functional", "Population": 0, "UC_NAME": "Mubarik", "Tehsil": "Dera_Ghazi_Khan", "Province": "Punjab", "District": "Dera_Ghazi_Khan", "Shape_Leng": 2.4136382845800002 }, "geometry": { "type": "Point", "coordinates": [ 70.698207675000049, 30.265599708000025 ] } },
    { "type": "Feature", "properties": { "OBJECTID": 2731, "HF_Name": "DONA", "HF_Type": "BASIC HEALTH UNIT", "Category": "Other", "Latitude": 30.8199996948, "Longitude": 70.699996948199995, "Functional": "Functional", "Population": 0, "UC_NAME": "Sharoki", "Tehsil": "Taunsa", "Province": "Punjab", "District": "Dera_Ghazi_Khan", "Shape_Leng": 2.70690763114 }, "geometry": { "type": "Point", "coordinates": [ 70.697957793000057, 30.81477562200007 ] } },
    { "type": "Feature", "properties": { "OBJECTID": 2732, "HF_Name": "HEROO SHARQI", "HF_Type": "BASIC HEALTH UNIT", "Category": "Other", "Latitude": 30.670000076299999, "Longitude": 70.699996948199995, "Functional": "Functional", "Population": 0, "UC_NAME": "Makwal Kalan", "Tehsil": "Taunsa", "Province": "Punjab", "District": "Dera_Ghazi_Khan", "Shape_Leng": 2.70690763114 }, "geometry": { "type": "Point", "coordinates": [ 70.699361131000046, 30.664801010000076 ] } },
    { "type": "Feature", "properties": { "OBJECTID": 2733, "HF_Name": "KHAKHI", "HF_Type": "BASIC HEALTH UNIT", "Category": "Other", "Latitude": 30.0, "Longitude": 70.699996948199995, "Functional": "Functional", "Population": 0, "UC_NAME": "Smena", "Tehsil": "Dera_Ghazi_Khan", "Province": "Punjab", "District": "Dera_Ghazi_Khan", "Shape_Leng": 2.4136382845800002 }, "geometry": { "type": "Point", "coordinates": [ 70.701159699000073, 30.001568130000067 ] } },
    { "type": "Feature", "properties": { "OBJECTID": 2734, "HF_Name": "TRIMIN", "HF_Type": "BASIC HEALTH UNIT", "Category": "Other", "Latitude": 31.270000457799998, "Longitude": 70.699996948199995, "Functional": "Functional", "Population": 0, "UC_NAME": "Jallu Wali", "Tehsil": "Taunsa", "Province": "Punjab", "District": "Dera_Ghazi_Khan", "Shape_Leng": 2.70690763114 }, "geometry": { "type": "Point", "coordinates": [ 70.696405497000057, 31.269708370000046 ] } },
    { "type": "Feature", "properties": { "OBJECTID": 2735, "HF_Name": "0BASTI BHURGRA", "HF_Type": "SUB HEALTH CENTRE", "Category": "Other", "Latitude": 30.870000839199999, "Longitude": 70.709999084499998, "Functional": "Functional", "Population": 0, "UC_NAME": "Sharoki", "Tehsil": "Taunsa", "Province": "Punjab", "District": "Dera_Ghazi_Khan", "Shape_Leng": 2.70690763114 }, "geometry": { "type": "Point", "coordinates": [ 70.706258572000081, 30.873196732000054 ] } },
    { "type": "Feature", "properties": { "OBJECTID": 2736, "HF_Name": "MUSLIM TOWN", "HF_Type": "BASIC HEALTH UNIT", "Category": "Other", "Latitude": 28.739999771099999, "Longitude": 70.709999084499998, "Functional": "Functional", "Population": 0, "UC_NAME": "Azim Shah", "Tehsil": "Khanpur", "Province": "Punjab", "District": "Rahim_Yar_Khan", "Shape_Leng": 2.6696519268899999 }, "geometry": { "type": "Point", "coordinates": [ 70.708497561000058, 28.744123262000073 ] } },
    { "type": "Feature", "properties": { "OBJECTID": 2737, "HF_Name": "ALLAH JAWAYA LAR", "HF_Type": "BASIC HEALTH UNIT", "Category": "Other", "Latitude": 28.969999313399999, "Longitude": 70.709999084499998, "Functional": "Functional", "Population": 0, "UC_NAME": "Shaidani Sharif", "Tehsil": "Liaqatpur", "Province": "Punjab", "District": "Rahim_Yar_Khan", "Shape_Leng": 5.8963813334 }, "geometry": { "type": "Point", "coordinates": [ 70.709449303000042, 28.969555231000072 ] } },
    { "type": "Feature", "properties": { "OBJECTID": 2738, "HF_Name": "GABER ARIAN", "HF_Type": "BASIC HEALTH UNIT", "Category": "Other", "Latitude": 29.3199996948, "Longitude": 70.720001220699999, "Functional": "Functional", "Population": 0, "UC_NAME": "Langar Wah", "Tehsil": "Alipur", "Province": "Punjab", "District": "Muzaffargarh", "Shape_Leng": 2.2035724813000002 }, "geometry": { "type": "Point", "coordinates": [ 70.716006083000082, 29.315389904000028 ] } },
    { "type": "Feature", "properties": { "OBJECTID": 2739, "HF_Name": "KALA", "HF_Type": "BASIC HEALTH UNIT", "Category": "Other", "Latitude": 30.379999160800001, "Longitude": 70.720001220699999, "Functional": "Functional", "Population": 0, "UC_NAME": "Shah Sadar Din", "Tehsil": "Dera_Ghazi_Khan", "Province": "Punjab", "District": "Dera_Ghazi_Khan", "Shape_Leng": 2.4136382845800002 }, "geometry": { "type": "Point", "coordinates": [ 70.72320521000006, 30.380239240000037 ] } },
    { "type": "Feature", "properties": { "OBJECTID": 2740, "HF_Name": "QADIRABAD", "HF_Type": "RURAL HEALTH CENTRE", "Category": "Other", "Latitude": 30.059999465899999, "Longitude": 70.720001220699999, "Functional": "Functional", "Population": 0, "UC_NAME": "Haji Ghazi Garh", "Tehsil": "Dera_Ghazi_Khan", "Province": "Punjab", "District": "Dera_Ghazi_Khan", "Shape_Leng": 2.4136382845800002 }, "geometry": { "type": "Point", "coordinates": [ 70.723897550000061, 30.06498337000005 ] } },
    { "type": "Feature", "properties": { "OBJECTID": 2741, "HF_Name": "JHOK UTRA", "HF_Type": "BASIC HEALTH UNIT", "Category": "Other", "Latitude": 29.840000152599998, "Longitude": 70.730003356899999, "Functional": "Functional", "Population": 0, "UC_NAME": "Jakkar Shah", "Tehsil": "Kot_Chatta", "Province": "Punjab", "District": "Dera_Ghazi_Khan", "Shape_Leng": 2.6145173128399999 }, "geometry": { "type": "Point", "coordinates": [ 70.726232850000031, 29.841935191000061 ] } },
    { "type": "Feature", "properties": { "OBJECTID": 2742, "HF_Name": "HAVELY GHARIB SHAH", "HF_Type": "BASIC HEALTH UNIT", "Category": "Other", "Latitude": 28.7999992371, "Longitude": 70.730003356899999, "Functional": "Functional", "Population": 0, "UC_NAME": "Pakka Laran", "Tehsil": "Khanpur", "Province": "Punjab", "District": "Rahim_Yar_Khan", "Shape_Leng": 2.6696519268899999 }, "geometry": { "type": "Point", "coordinates": [ 70.726202335000039, 28.800893525000049 ] } },
    { "type": "Feature", "properties": { "OBJECTID": 2743, "HF_Name": "SHAH SADAR DIN", "HF_Type": "RURAL HEALTH CENTRE", "Category": "Other", "Latitude": 30.469999313399999, "Longitude": 70.730003356899999, "Functional": "Functional", "Population": 0, "UC_NAME": "Makwal Kalan", "Tehsil": "Dera_Ghazi_Khan", "Province": "Punjab", "District": "Dera_Ghazi_Khan", "Shape_Leng": 2.4136382845800002 }, "geometry": { "type": "Point", "coordinates": [ 70.728123180000068, 30.470402050000075 ] } },
    { "type": "Feature", "properties": { "OBJECTID": 2744, "HF_Name": "0BARTHI", "HF_Type": "SUB HEALTH CENTRE", "Category": "Other", "Latitude": 31.0499992371, "Longitude": 70.730003356899999, "Functional": "Functional", "Population": 0, "UC_NAME": "Tibbi Quaserani", "Tehsil": "Taunsa", "Province": "Punjab", "District": "Dera_Ghazi_Khan", "Shape_Leng": 2.70690763114 }, "geometry": { "type": "Point", "coordinates": [ 70.728134720000071, 31.049888390000035 ] } },
    { "type": "Feature", "properties": { "OBJECTID": 2745, "HF_Name": "SARWAR WALI", "HF_Type": "RURAL HEALTH CENTRE", "Category": "Other", "Latitude": 30.280000686600001, "Longitude": 70.730003356899999, "Functional": "Functional", "Population": 0, "UC_NAME": "Shah Sadar Din", "Tehsil": "Dera_Ghazi_Khan", "Province": "Punjab", "District": "Dera_Ghazi_Khan", "Shape_Leng": 2.4136382845800002 }, "geometry": { "type": "Point", "coordinates": [ 70.731487685000047, 30.277590382000028 ] } },
    { "type": "Feature", "properties": { "OBJECTID": 2746, "HF_Name": "UNRAN", "HF_Type": "BASIC HEALTH UNIT", "Category": "Other", "Latitude": 29.0499992371, "Longitude": 70.730003356899999, "Functional": "Functional", "Population": 0, "UC_NAME": "Dufli Kabir Khan", "Tehsil": "Liaqatpur", "Province": "Punjab", "District": "Rahim_Yar_Khan", "Shape_Leng": 5.8963813334 }, "geometry": { "type": "Point", "coordinates": [ 70.731347730000039, 29.049226789000045 ] } },
    { "type": "Feature", "properties": { "OBJECTID": 2747, "HF_Name": "KHAN BELA", "HF_Type": "RURAL HEALTH CENTRE", "Category": "Other", "Latitude": 28.969999313399999, "Longitude": 70.730003356899999, "Functional": "Functional", "Population": 0, "UC_NAME": "Shaidani Sharif", "Tehsil": "Liaqatpur", "Province": "Punjab", "District": "Rahim_Yar_Khan", "Shape_Leng": 5.8963813334 }, "geometry": { "type": "Point", "coordinates": [ 70.73303624700003, 28.967265824000037 ] } },
    { "type": "Feature", "properties": { "OBJECTID": 2748, "HF_Name": "MAKWAL KALAN", "HF_Type": "BASIC HEALTH UNIT", "Category": "Other", "Latitude": 30.579999923700001, "Longitude": 70.730003356899999, "Functional": "Functional", "Population": 0, "UC_NAME": "Makwal Kalan", "Tehsil": "Taunsa", "Province": "Punjab", "District": "Dera_Ghazi_Khan", "Shape_Leng": 2.70690763114 }, "geometry": { "type": "Point", "coordinates": [ 70.733041150000076, 30.581876070000078 ] } },
    { "type": "Feature", "properties": { "OBJECTID": 2749, "HF_Name": "PIR ADIL", "HF_Type": "BASIC HEALTH UNIT", "Category": "Other", "Latitude": 30.1800003052, "Longitude": 70.730003356899999, "Functional": "Functional", "Population": 0, "UC_NAME": "Rahma", "Tehsil": "Dera_Ghazi_Khan", "Province": "Punjab", "District": "Dera_Ghazi_Khan", "Shape_Leng": 2.4136382845800002 }, "geometry": { "type": "Point", "coordinates": [ 70.734065562000069, 30.18287441700005 ] } },
    { "type": "Feature", "properties": { "OBJECTID": 2750, "HF_Name": "KUNDAI", "HF_Type": "DISPENSARY", "Category": "Other", "Latitude": 29.219999313399999, "Longitude": 70.730003356899999, "Functional": "Functional", "Population": 0, "UC_NAME": "Khangarh Dona", "Tehsil": "Alipur", "Province": "Punjab", "District": "Muzaffargarh", "Shape_Leng": 2.2035724813000002 }, "geometry": { "type": "Point", "coordinates": [ 70.733897465000041, 29.215838904000066 ] } },
    { "type": "Feature", "properties": { "OBJECTID": 2751, "HF_Name": "MEHTUM", "HF_Type": "BASIC HEALTH UNIT", "Category": "Other", "Latitude": 29.909999847400002, "Longitude": 70.739997863799999, "Functional": "Functional", "Population": 0, "UC_NAME": "Ghousabad", "Tehsil": "Kot_Chatta", "Province": "Punjab", "District": "Dera_Ghazi_Khan", "Shape_Leng": 2.6145173128399999 }, "geometry": { "type": "Point", "coordinates": [ 70.741069441000036, 29.907161036000048 ] } },
    { "type": "Feature", "properties": { "OBJECTID": 2752, "HF_Name": "DATIWALA", "HF_Type": "SUB HEALTH CENTRE", "Category": "Other", "Latitude": 30.0, "Longitude": 70.739997863799999, "Functional": "Functional", "Population": 0, "UC_NAME": "Smena", "Tehsil": "Dera_Ghazi_Khan", "Province": "Punjab", "District": "Dera_Ghazi_Khan", "Shape_Leng": 2.4136382845800002 }, "geometry": { "type": "Point", "coordinates": [ 70.740893838000034, 29.997742412000036 ] } },
    { "type": "Feature", "properties": { "OBJECTID": 2753, "HF_Name": "BASTI MIRANI", "HF_Type": "DISPENSARY", "Category": "Other", "Latitude": 29.6800003052, "Longitude": 70.739997863799999, "Functional": "Functional", "Population": 0, "UC_NAME": "Bet Mir Hazar Khan", "Tehsil": "Jatoi", "Province": "Punjab", "District": "Muzaffargarh", "Shape_Leng": 1.86077842086 }, "geometry": { "type": "Point", "coordinates": [ 70.779016529000046, 29.677324431000045 ] } },
    { "type": "Feature", "properties": { "OBJECTID": 2754, "HF_Name": "BASTI URLA", "HF_Type": "DISPENSARY", "Category": "Other", "Latitude": 29.25, "Longitude": 70.75, "Functional": "Functional", "Population": 0, "UC_NAME": "Langar Wah", "Tehsil": "Alipur", "Province": "Punjab", "District": "Muzaffargarh", "Shape_Leng": 2.2035724813000002 }, "geometry": { "type": "Point", "coordinates": [ 70.747178248000068, 29.247731290000047 ] } },
    { "type": "Feature", "properties": { "OBJECTID": 2755, "HF_Name": "PACCA LARAN", "HF_Type": "RURAL HEALTH CENTRE", "Category": "Other", "Latitude": 28.870000839199999, "Longitude": 70.75, "Functional": "Functional", "Population": 0, "UC_NAME": "Pakka Laran", "Tehsil": "Liaqatpur", "Province": "Punjab", "District": "Rahim_Yar_Khan", "Shape_Leng": 5.8963813334 }, "geometry": { "type": "Point", "coordinates": [ 70.755314441000053, 28.865471844000069 ] } },
    { "type": "Feature", "properties": { "OBJECTID": 2756, "HF_Name": "KANDANI", "HF_Type": "BASIC HEALTH UNIT", "Category": "Other", "Latitude": 28.840000152599998, "Longitude": 70.760002136200001, "Functional": "Functional", "Population": 0, "UC_NAME": "Pakka Laran", "Tehsil": "Liaqatpur", "Province": "Punjab", "District": "Rahim_Yar_Khan", "Shape_Leng": 5.8963813334 }, "geometry": { "type": "Point", "coordinates": [ 70.757410690000029, 28.834581326000034 ] } },
    { "type": "Feature", "properties": { "OBJECTID": 2757, "HF_Name": "SAMINA", "HF_Type": "BASIC HEALTH UNIT", "Category": "Other", "Latitude": 30.0, "Longitude": 70.769996643100001, "Functional": "Functional", "Population": 0, "UC_NAME": "Smena", "Tehsil": "Dera_Ghazi_Khan", "Province": "Punjab", "District": "Dera_Ghazi_Khan", "Shape_Leng": 2.4136382845800002 }, "geometry": { "type": "Point", "coordinates": [ 70.765033059000075, 29.998906580000039 ] } },
    { "type": "Feature", "properties": { "OBJECTID": 2758, "HF_Name": "HAJI GHAZI GHARBI", "HF_Type": "BASIC HEALTH UNIT", "Category": "Other", "Latitude": 30.030000686600001, "Longitude": 70.769996643100001, "Functional": "Functional", "Population": 0, "UC_NAME": "Smena", "Tehsil": "Dera_Ghazi_Khan", "Province": "Punjab", "District": "Dera_Ghazi_Khan", "Shape_Leng": 2.4136382845800002 },